"slug";"name";"website";"country";"city";"ror";"lat";"lon";"type";"is_tenant";"software_count";"project_count";"logo"
"heidelberg-university";"Heidelberg University";"http://www.uni-heidelberg.de/index_e.html";"Germany";"Heidelberg";"https://ror.org/038t36y30";49.40768;8.69079;"Education";"no";1;1;"https://research-software-directory.org/image/rpc/get_image?uid=cccf662a37caefb4c3dcb9cbf0047e86f6f291cc"
"eindhoven-university-of-technology";"Eindhoven University of Technology";"https://www.tue.nl/en/";"Netherlands";"Eindhoven";"https://ror.org/02c2kyt77";51.44083;5.47778;"Education";"no";10;12;"https://research-software-directory.org/image/rpc/get_image?uid=1c2447e76482f0708c80db03649a6148c5521206"
"eli-lilly-united-states";"Eli Lilly (United States)";"http://www.lilly.com/";"United States";"Indianapolis";"https://ror.org/01qat3289";39.76838;-86.15804;"Company";"no";0;1;"https://research-software-directory.org/image/rpc/get_image?uid=3cdf1f0600529a71fdbd448d829ed712ab68c4bd"
"health-holland";"Health Holland";"https://www.health-holland.com/";"Netherlands";"The Hague";"https://ror.org/056cwr036";52.07667;4.29861;"Healthcare";"no";0;5;"https://research-software-directory.org/image/rpc/get_image?uid=306acbcabca68094b7f8403742d0cd4f47b6efaa"
"uni-research-norway";"Uni Research (Norway)";"http://uni.no/en/";"Norway";"Bergen";"https://ror.org/016tr2j79";60.384377;5.333241;"Company";"no";0;0;"https://research-software-directory.org/image/rpc/get_image?uid=ce5ceb42cc8f3d7d416f4215db63480eb3bf1d33"
"tno";"TNO";"http://www.tno.nl/";"Netherlands";"Delft";"https://ror.org/01bnjb948";52.00667;4.35556;"Nonprofit";"no";1;6;"https://research-software-directory.org/image/rpc/get_image?uid=ce331ac98111c4f676780c3e6b9ed252042a3c60"
"odissei";"ODISSEI";"https://odissei-data.nl/en/";"Netherlands";"Rotterdam";"https://ror.org/03m8v6t10";51.915855;4.52618;"Facility";"no";3;13;"https://research-software-directory.org/image/rpc/get_image?uid=e216fcf8d07980eaba1ea328c3f8fb5b4f17c61e"
"integrated-carbon-observation-system";"Integrated Carbon Observation System";"https://www.icos-ri.eu/";"Finland";"Helsinki";"https://ror.org/01d0fc168";60.204638;24.961622;"Other";"yes";0;0;"https://research-software-directory.org/image/rpc/get_image?uid=f8df04b45421ae010f29ad424d9d142daf3c80d6"
"imperial-college-london";"Imperial College London";"http://www.imperial.ac.uk";"United Kingdom";"London";"https://ror.org/041kmwe10";51.50853;-0.12574;"Education";"no";0;0;"https://research-software-directory.org/image/rpc/get_image?uid=03e09e92184d301f281da70a6cebb9ed93c78e50"
"potree";"Potree";"http://potree.org";"International";;;;;;"no";2;0;"https://research-software-directory.org/image/rpc/get_image?uid=69ad71e03f6bf70ee59f2ac3f52b9f0038caef7a"
"oci-nitrogen";"OCI Nitrogen";"http://ocinitrogen.com/";;;;;;;"no";0;1;"https://research-software-directory.org/image/rpc/get_image?uid=4b6ca5e943bded5a89b0ae5c6a41f1f799d4aaf2"
"cybera";"Cybera";"https://www.cybera.ca/";"Canada";;;;;;"no";2;0;"https://research-software-directory.org/image/rpc/get_image?uid=f220ed3a6de1f7280109955cf1eff6f33f735015"
"university-of-manitoba";"University of Manitoba";"http://umanitoba.ca/";"Canada";"Winnipeg";"https://ror.org/02gfys938";49.8844;-97.14704;"Education";"no";2;0;"https://research-software-directory.org/image/rpc/get_image?uid=e236ceca276594d63a999bd307ab2f94cac73aef"
"foresight-intelligence-johannes-gabriel-und-martin-frohlich-gbr";"Foresight Intelligence Johannes Gabriel und Martin Fröhlich GbR";"https://www.foresightintelligence.de/";"Germany";;;;;;"no";0;1;"https://research-software-directory.org/image/rpc/get_image?uid=6d6749000d968e5364c4b0999ddcbad692d6e34e"
"elixir";"ELIXIR";"https://elixir-europe.org";"United Kingdom";"Hinxton";"https://ror.org/044rwnt51";52.08529;0.18198;"Other";"no";3;1;"https://research-software-directory.org/image/rpc/get_image?uid=6fb18c1646fc4ce1aff474dfe2bda0696811d29e"
"ku-leuven";"KU Leuven";"http://www.kuleuven.be/english";"Belgium";"Leuven";"https://ror.org/05f950310";50.87959;4.70093;"Education";"no";0;2;"https://research-software-directory.org/image/rpc/get_image?uid=920d7e85650a8ce33dd32db8464cce8484cb5215"
"nanyang-technical-university";"Nanyang Technical University";"http://www.ntu.edu.sg";"Singapore";"Singapore";"https://ror.org/02e7b5302";1.28967;103.85007;"Education";"no";0;0;"https://research-software-directory.org/image/rpc/get_image?uid=3695eaa3afac89b908fc143d8a0c32001c3bfa57"
"philips";"Philips";;"Netherlands";"Amsterdam";"https://ror.org/02p2bgp27";52.37403;4.88969;"Company";"no";0;1;"https://research-software-directory.org/image/rpc/get_image?uid=f3e5e1b31fe5dba544351a5ca43ff70958bb3edf"
"campussea-cooperative";"Campus@Sea Cooperative";"https://www.campusatsea.nl/";;;;;;;"no";0;1;"https://research-software-directory.org/image/rpc/get_image?uid=d74d11f3e71fc3ff851290c9e010140d069a4895"
"scottish-association-for-marine-science";"Scottish Association For Marine Science";"http://www.sams.ac.uk/";"United Kingdom";"Oban";"https://ror.org/04ke6ht85";56.41535;-5.47184;"Facility";"no";0;1;"https://research-software-directory.org/image/rpc/get_image?uid=52c522d7435664406209bd81b0f3c0cefc10df37"
"swi-prolog-solutions-bv";"SWI-Prolog Solutions b.v.";"http://swi-prolog.com/about.html";"Netherlands";;;;;;"no";0;1;"https://research-software-directory.org/image/rpc/get_image?uid=8ca7ebe8f045099af1a35f3da0ec0208755d917a"
"forschungszentrum-julich";"Forschungszentrum Jülich";"https://www.fz-juelich.de";"Germany";"Jülich";"https://ror.org/02nv7yv05";50.92149;6.36267;"Facility";"no";3;1;"https://research-software-directory.org/image/rpc/get_image?uid=83fbcb1ec710fc8373a57154655afe89e6f712af"
"meteo-france";"Météo-France";"http://www.meteofrance.com/accueil";"France";"Toulouse";"https://ror.org/0233st365";43.60426;1.44367;"Other";"no";0;2;"https://research-software-directory.org/image/rpc/get_image?uid=ba2c7fcafd2f6c13bab2bc977a8c930138cabddd"
"piedmont-epidemiological-service-sepi";"Piedmont Epidemiological Service (SEPI)";"https://www.epi.piemonte.it/";"Italy";;;;;;"no";1;1;"https://research-software-directory.org/image/rpc/get_image?uid=963c0dba759c801e3ebfdef378eaefb743de6663"
"university-of-cantabria";"University of Cantabria";"http://web.unican.es/";"Spain";"Santander";"https://ror.org/046ffzj20";43.46472;-3.80444;"Education";"no";0;1;"https://research-software-directory.org/image/rpc/get_image?uid=47ae15aec092ab2158fde6ef78bfd4500e6f2279"
"stockholm-university";"Stockholm University";"https://www.su.se";"Sweden";"Stockholm";"https://ror.org/05f0yaq80";59.32938;18.06871;"Education";"no";1;0;"https://research-software-directory.org/image/rpc/get_image?uid=146ca9f6487f5c77627050caee1d0753014e59c4"
"hesso-university-of-applied-sciences-and-arts";"HES.SO University of Applied Sciences and Arts";;"Switzerland";"Delémont";"https://ror.org/01xkakk17";47.36493;7.34453;"Education";"no";0;1;"https://research-software-directory.org/image/rpc/get_image?uid=b8ae7ceb0d5cc99f2cb7c021d5574b507c7a1358"
"research-institute-of-the-mcgill-university-health-center";"Research Institute of the McGill University Health Center";"https://muhc.ca/research";"Canada";;;;;;"no";3;0;"https://research-software-directory.org/image/rpc/get_image?uid=ea0066a361f0558be83bfcf3eb728ea5540795b1"
"ing-bank";"ING Bank";"http://www.ing.com/en.htm";"Netherlands";"Amsterdam";"https://ror.org/059et9981";52.350636;4.879307;"Other";"no";0;1;"https://research-software-directory.org/image/rpc/get_image?uid=1b546d0f6737c25e946bc05a8fd7082e213a81c2"
"clearpeaks";"ClearPeaks";"https://www.clearpeaks.com";"Spain";;;;;;"no";0;0;
"inmark";"INMARK";;"Spain";"Madrid";"https://ror.org/01kkw3w51";40.48964;-3.685813;"Company";"no";0;1;"https://research-software-directory.org/image/rpc/get_image?uid=82314a7cff46ce7d30086805ee4241a4a2d57658"
"niod-institute-for-war-holocaust-and-genocide-studies";"NIOD Institute for War, Holocaust and Genocide Studies";"http://www.niod.nl/";"Netherlands";"Amsterdam";"https://ror.org/05he87q93";52.368916;4.886349;"Facility";"no";0;1;"https://research-software-directory.org/image/rpc/get_image?uid=c11e82f849757ab4ae7e05cf6cbc0824d2d25520"
"commit";"COMMIT";"http://www.commit-nl.nl/";"Netherlands";"Amsterdam";"https://ror.org/031m0hs53";52.35458;4.955932;"Other";"no";0;2;"https://research-software-directory.org/image/rpc/get_image?uid=9228166be21bc94267afd14071b9ae47bbe15d55"
"institute-of-geomatics-boku";"Institute of Geomatics, BOKU";"https://www.boku.ac.at/en/rali/geomatics";"Austria";"Vienna";"https://ror.org/057ff4y42";48.20849;16.37208;"Education";"no";1;0;
"city-university-of-london";"City University of London";;"United Kingdom";"London";"https://ror.org/04489at23";51.50853;-0.12574;"Education";"no";0;0;"https://research-software-directory.org/image/rpc/get_image?uid=dff3e41f4da6380b3ff6a6d6732029a4ec842bd0"
"universite-du-quebec-a-trois-rivieres";"Université du Québec à Trois-Rivières";"http://www.uqtr.ca/";"Canada";"Trois-Rivières";"https://ror.org/02xrw9r68";46.34515;-72.5477;"Education";"no";1;0;"https://research-software-directory.org/image/rpc/get_image?uid=08d711f121299ab6d4288432b98eecbc0df93b26"
"university-of-notre-dame";"University of Notre Dame";"https://www.nd.edu/";"United States";"Notre Dame";"https://ror.org/00mkhxb43";41.70019;-86.23793;"Education";"no";0;1;"https://research-software-directory.org/image/rpc/get_image?uid=e3173c67cf73a25638e288506544ba63d7cd84f9"
"norwegian-meteorological-institute";"Norwegian Meteorological Institute";"http://met.no";"Norway";"Oslo";"https://ror.org/001n36p86";59.91273;10.74609;"Government";"no";0;1;"https://research-software-directory.org/image/rpc/get_image?uid=15631995fe0fa8c9cec0b372bb9c16ae5f9c302f"
"institute-of-world-economy-and-international-relations";"Institute of World Economy and International Relations";"http://www.imemo.ru/en";"Russia";"Moscow";"https://ror.org/04jqmw447";55.674734;37.561162;"Facility";"no";0;1;"https://research-software-directory.org/image/rpc/get_image?uid=d01ec12f2a6f07f43c17fc7bc8a82de00b459d3a"
"monetdb-solutions";"MonetDB Solutions";"http://monetdbsolutions.com/";"Netherlands";;;;;;"no";0;4;"https://research-software-directory.org/image/rpc/get_image?uid=c2a666aa9b6213cff63255ebac096eec0216581f"
"porous-materials-engineering-and-analysis-lab";"Porous Materials Engineering and Analysis Lab ";"http://pmeal.com/";;;;;;;"no";1;0;"https://research-software-directory.org/image/rpc/get_image?uid=7d54bcac7690cbb74437855e9d23e07ce00207c9"
"surf";"SURF";"https://www.surf.nl/";"Netherlands";"Utrecht";"https://ror.org/009vhk114";52.09083;5.12222;"Other";"no";2;19;"https://research-software-directory.org/image/rpc/get_image?uid=ba2277158879fce775980dab00bd505e70e8cdb2"
"port-of-rotterdam-authority";"Port of Rotterdam Authority";"https://www.portofrotterdam.com/en";"Netherlands";"Rotterdam";"https://ror.org/05rzqb565";51.904919;4.484504;"Government";"no";0;1;"https://research-software-directory.org/image/rpc/get_image?uid=f1240913aab15bb20837151f8fcb7df288f140f9"
"eu-horizon-2020";"EU Horizon 2020";;"Belgium";"Brussels";"https://ror.org/019w4f821";50.85045;4.34878;"Government";"no";0;15;"https://research-software-directory.org/image/rpc/get_image?uid=c34f028893f6bac80da047eafc09ab3ee528ff86"
"flemish-institute-for-technological-research";"Flemish Institute for Technological Research";"https://vito.be/en";"Belgium";"Mol";"https://ror.org/04gq0w522";51.19188;5.11662;"Facility";"no";0;1;"https://research-software-directory.org/image/rpc/get_image?uid=1774798b8d961d77f0b7503f315c246338ef3505"
"gustomsc";"GustoMSC";"https://www.gustomsc.com/";;;;;;;"no";0;1;"https://research-software-directory.org/image/rpc/get_image?uid=ac6b0e99a904fb6c0dc0d25f52bdfc7c4067aaf7"
"hanze-university-of-applied-sciences";"Hanze University of Applied Sciences";"https://www.hanze.nl/eng";"Netherlands";"Groningen";"https://ror.org/00xqtxw43";53.21917;6.56667;"Education";"no";0;1;"https://research-software-directory.org/image/rpc/get_image?uid=5d9c2146a4f24351aa958f667f106f6d956e480f"
"stedin";"Stedin";"https://www.stedin.net";;;;;;;"no";0;2;"https://research-software-directory.org/image/rpc/get_image?uid=19a15ce2bd7500ae391bba55d1a061d5d69e36d7"
"maastricht-university";"Maastricht University";"https://www.maastrichtuniversity.nl";"Netherlands";"Maastricht";"https://ror.org/02jz4aj89";50.84833;5.68889;"Education";"yes";18;12;"https://research-software-directory.org/image/rpc/get_image?uid=eedf68aa26b4adaa6214834cb4a1020f8ab3f0da"
"process";"PROCESS";;"Europe";;;;;;"no";0;1;"https://research-software-directory.org/image/rpc/get_image?uid=0ec3ee0081307c97432889858e44f4d4c06fe8af"
"national-institute-of-chemistry";"National Institute of Chemistry";;"Slovenia";"Ljubljana";"https://ror.org/050mac570";46.05108;14.50513;"Facility";"no";0;1;"https://research-software-directory.org/image/rpc/get_image?uid=b6c1ce519c8042d1647ecbfa654cae1de99482ec"
"netherlands-organisation-for-health-research-and-development";"Netherlands Organisation for Health Research and Development";"http://www.zonmw.nl/en/";"Netherlands";"The Hague";"https://ror.org/01yaj9a77";52.07667;4.29861;"Nonprofit";"no";0;5;"https://research-software-directory.org/image/rpc/get_image?uid=cdd9339829de81c00c6fa5bb445b1cdde91eebe2"
"accelting";"Accelting";"https://www.accelting.com/";"Netherlands";;;;;;"no";1;1;"https://research-software-directory.org/image/rpc/get_image?uid=cf6de6c079ff33bfb383dc36dae998927938a25e"
"am-obukhov-institute-of-atmospheric-physics";"A.M. Obukhov Institute of Atmospheric Physics";"http://ifaran.ru/ras/view/organization/history.html?id=5193";"Russia";"Moscow";"https://ror.org/03snt1857";55.774788;37.632378;"Facility";"no";0;1;"https://research-software-directory.org/image/rpc/get_image?uid=f70b896f2173deffa24f5d26c772f7b67d9a6cf7"
"university-of-granada";"University of Granada";"https://www.ugr.es";"Spain";"Granada";"https://ror.org/04njjy449";37.18817;-3.60667;"Education";"no";1;0;"https://research-software-directory.org/image/rpc/get_image?uid=5e62aed6a30af593cbd3105daa786a491c5eff14"
"stony-brook-university";"Stony Brook University";"http://www.stonybrook.edu/";"United States";"Stony Brook";"https://ror.org/05qghxh33";40.92565;-73.14094;"Education";"no";0;1;"https://research-software-directory.org/image/rpc/get_image?uid=7b2fdbee4fc6f9953d49d45f35a2d812181b4c28"
"surfsara";"SURFsara";"https://www.surf.nl/en/about-surf/subsidiaries/surfsara/";"Netherlands";"Amsterdam";"https://ror.org/01k0v6g02";52.356731;4.954666;"Company";"no";4;14;"https://research-software-directory.org/image/rpc/get_image?uid=d01d80622429342dea118896e4b107a89bec191c"
"hochschule-dusseldorf-university-of-applied-sciences";"Hochschule Düsseldorf University of Applied Sciences";"https://www.hs-duesseldorf.de/en";"Germany";"Düsseldorf";"https://ror.org/00ftx0026";51.189516;6.795446;"Education";"no";3;0;"https://research-software-directory.org/image/rpc/get_image?uid=0491e67f79ca19e95d6e442a965ecd98a851ea82"
"university-of-calgary";"University of Calgary";"http://www.ucalgary.ca/";"Canada";"Calgary";"https://ror.org/03yjb2x39";51.05011;-114.08529;"Education";"no";5;0;"https://research-software-directory.org/image/rpc/get_image?uid=a8f1f3bb83c5f6a03400caf3eb473dec7e67358a"
"university-of-sheffield";"University of Sheffield";"http://www.sheffield.ac.uk/";"United Kingdom";"Sheffield";"https://ror.org/05krs5044";53.38297;-1.4659;"Education";"no";1;0;"https://research-software-directory.org/image/rpc/get_image?uid=28166b0d22915d3e184a7c6e9e22ceee2bf9468e"
"laboratoire-dannecy-le-vieux-de-physique-des-particules";"Laboratoire d'Annecy-le-Vieux de Physique des Particules";"http://lapp.in2p3.fr/?lang=en";"France";"Annecy";"https://ror.org/049nhh297";45.90878;6.12565;"Facility";"no";1;0;
"fraunhofer";"Fraunhofer";;"Germany";"Munich";"https://ror.org/05hkkdn48";48.13743;11.57549;"Government";"no";0;1;"https://research-software-directory.org/image/rpc/get_image?uid=ae40d25f8293f4da5061f92b31fe8012efbe0ef4"
"clariah";"CLARIAH";"https://www.clariah.nl";"Netherlands";;;;;;"no";1;5;"https://research-software-directory.org/image/rpc/get_image?uid=4d1cb29d12e868485ae3bbb50e351879596a1ce2"
"european-research-council";"European Research Council";"http://erc.europa.eu/";"Belgium";"Brussels";"https://ror.org/0472cxd90";50.85045;4.34878;"Government";"no";0;3;"https://research-software-directory.org/image/rpc/get_image?uid=b407dc3ea428e5e1a8e26db529a7cb7d91e2af4d"
"helmholtz-zentrum-dresden-rossendorf";"Helmholtz-Zentrum Dresden-Rossendorf";"https://www.hzdr.de";"Germany";"Dresden";"https://ror.org/01zy2cs03";51.05089;13.73832;"Facility";"no";3;2;"https://research-software-directory.org/image/rpc/get_image?uid=efe04d5b0edafa3f08ec03b2799e498ef9740fe1"
"university-of-guelph";"University of Guelph";"http://www.uoguelph.ca/";"Canada";"Guelph";"https://ror.org/01r7awg59";43.54594;-80.25599;"Education";"no";2;0;"https://research-software-directory.org/image/rpc/get_image?uid=3873079ba8253cdda1f9f3fe9c3d8742e045ec23"
"eneco";"Eneco";"https://www.eneco.nl/";"Netherlands";;;;;;"no";0;3;"https://research-software-directory.org/image/rpc/get_image?uid=eaabb9f59b98e160faf850cf308554a0eafb9604"
"university-of-belgrade";"University of Belgrade";"http://www.bg.ac.rs/en/";"Serbia";"Belgrade";"https://ror.org/02qsmb048";44.80401;20.46513;"Education";"no";0;1;"https://research-software-directory.org/image/rpc/get_image?uid=6091bf9bcae1aedbeedac83ea179cedbeccf4ec1"
"oilab";"OILab";"https://oilab.eu";;;;;;;"no";2;0;"https://research-software-directory.org/image/rpc/get_image?uid=fe7ec38134d29b475cb949b52bd2f4a639b1c72c"
"kws";"KWS";;"Germany";"Einbeck";"https://ror.org/02p9c1e58";51.815651;9.884588;"Company";"no";0;1;"https://research-software-directory.org/image/rpc/get_image?uid=d56e62caa143495c5f3ce1e7b9df87c1319cae36"
"danmarks-pelagiske-producentorganisation";"Danmarks Pelagiske Producentorganisation";"https://www.dppo.dk/";;;;;;;"no";0;1;"https://research-software-directory.org/image/rpc/get_image?uid=3f3cc5a1c774b844f761cb019d11d71003711429"
"university-of-leeds";"University of Leeds";"http://www.leeds.ac.uk/";"United Kingdom";"Leeds";"https://ror.org/024mrxd33";53.79648;-1.54785;"Education";"no";0;1;"https://research-software-directory.org/image/rpc/get_image?uid=48050893a45eb32008381ae079f082a4c437d9d4"
"sorbonne-universite";"Sorbonne Université";"https://www.sorbonne-universite.fr/";"France";"Paris";"https://ror.org/02en5vm52";48.85341;2.3488;"Education";"no";0;1;"https://research-software-directory.org/image/rpc/get_image?uid=7b4cfb23cc33c9700fbdd1b8cd43bd36303d5304"
"carleton-university";"Carleton University";"http://www.carleton.ca/";"Canada";"Ottawa";"https://ror.org/02qtvee93";45.41117;-75.69812;"Education";"no";2;0;"https://research-software-directory.org/image/rpc/get_image?uid=c7204824b487d042a19f5cf2eb68ad226a15ddf2"
"tki-offshore-wind-netherlands-wind-energy-association-nwea";"TKI Offshore Wind, Netherlands Wind Energy Association (NWEA)";"https://www.nwea.nl/over-nwea/?lang=en";;;;;;;"no";0;1;"https://research-software-directory.org/image/rpc/get_image?uid=93c8e07b542894f7487a79496032f37fdadf89c5"
"anton-de-kom-university-of-suriname";"Anton de Kom University of Suriname";"http://www.uvs.edu/";"Suriname";"Paramaribo";"https://ror.org/02m8qhj08";5.813521;-55.217275;"Education";"no";0;0;"https://research-software-directory.org/image/rpc/get_image?uid=35602a596bf2da153cf66fd1d2f1074660ddb53e"
"cicero-center-for-international-climate-research";"CICERO Center for International Climate Research";;"Norway";"Oslo";"https://ror.org/01gw5dy53";59.91273;10.74609;"Facility";"no";0;1;"https://research-software-directory.org/image/rpc/get_image?uid=77c719923709a88cc0fe33f77b893d5692770e34"
"leids-universitair-medisch-center";"Leids Universitair Medisch Center";;"Netherlands";;;;;;"no";0;0;
"esiwace";"ESiWACE";;"Europe";;;;;;"no";0;1;"https://research-software-directory.org/image/rpc/get_image?uid=495d04c5fbaae7075f70ee85a5211ceb2bd9373a"
"differ";"DIFFER";"https://www.differ.nl/";"Netherlands";"Eindhoven";"https://ror.org/03w5dn804";51.44083;5.47778;"Facility";"no";2;2;"https://research-software-directory.org/image/rpc/get_image?uid=36646fe77fa89006a61e0eeaed0dca4093442aa7"
"institute-for-sustainable-process-technology";"Institute for Sustainable Process Technology";"http://www.ispt.eu/";"Netherlands";"Amersfoort";"https://ror.org/05nqm0q11";52.151954;5.363968;"Company";"no";0;1;"https://research-software-directory.org/image/rpc/get_image?uid=037232fdee968f4f48203a4a7bc82fb4511247d4"
"nikhef";"NIKHEF";"http://www.nikhef.nl/";"Netherlands";"Amsterdam";"https://ror.org/00f9tz983";52.37403;4.88969;"Facility";"no";3;9;"https://research-software-directory.org/image/rpc/get_image?uid=ba3f44e0ab4a0f95b956dd8c754cd7643a16cb47"
"university-of-helsinki";"University of Helsinki";"https://www.helsinki.fi/";"Finland";"Helsinki";"https://ror.org/040af2s02";60.16952;24.93545;"Education";"no";0;1;"https://research-software-directory.org/image/rpc/get_image?uid=4bf94d8918576190285095d599b26d359eb465ce"
"heriot-watt-university";"Heriot-Watt University";"http://www.hw.ac.uk/";"United Kingdom";"Edinburgh";"https://ror.org/04mghma93";55.95206;-3.19648;"Education";"no";1;0;"https://research-software-directory.org/image/rpc/get_image?uid=b6ee89cb2378db1f19251fa0f1ff6402c5b88bb3"
"nunhems";"Nunhems";;"Netherlands";;;;;;"no";0;1;"https://research-software-directory.org/image/rpc/get_image?uid=ac75ab1378c3c286f75e69ed12eb70f0822bc785"
"havstovan";"Havstovan";"http://www.hav.fo/index.php?option=com_content&view=article&id=273&Itemid=265";"Faroe Islands";"Tórshavn";"https://ror.org/034thfr92";62.00587;-6.779773;"Facility";"no";0;1;"https://research-software-directory.org/image/rpc/get_image?uid=909f177304d948b93ddccbbbd6f6bf49b8d4b9d7"
"sams-research-services-ltd";"SAMS Research Services Ltd";"https://www.srsl.com";"United Kingdom";;;;;;"no";0;1;"https://research-software-directory.org/image/rpc/get_image?uid=7ccdc71823af34759dd3aebe9f2ea253c20b2d82"
"institut-national-de-linformation-geographique-et-forestiere";"Institut national de l’information géographique et forestière";"http://www.ign.fr/";"France";"Paris";"https://ror.org/05jxfge78";48.85341;2.3488;"Government";"no";0;0;"https://research-software-directory.org/image/rpc/get_image?uid=82c8d76a8575be0958590968169b770fae653e44"
"american-museum-of-natural-history";"American Museum of Natural History";"http://www.amnh.org/";"United States";"New York";"https://ror.org/03thb3e06";40.71427;-74.00597;"Archive";"no";0;1;"https://research-software-directory.org/image/rpc/get_image?uid=40951a0888a0fa0ae678dc52e70786dbd6b375ed"
"nederlands-forensisch-instituut";"Nederlands Forensisch Instituut";"http://www.nederlandsforensischinstituut.nl/";"Netherlands";"The Hague";"https://ror.org/04s2z4291";52.04464;4.35875;"Facility";"no";0;1;"https://research-software-directory.org/image/rpc/get_image?uid=1f805e97fc216784605a690802c8a7f803e0f81e"
"university-of-alaska-fairbanks";"University of Alaska Fairbanks";"http://www.uaf.edu/";"United States";"Fairbanks";"https://ror.org/01j7nq853";64.83778;-147.71639;"Education";"no";1;0;"https://research-software-directory.org/image/rpc/get_image?uid=c62dae5111396cb3f5dc35bbaee4250db30b8dfa"
"amsterdam-university-medical-centers-location-vu";"Amsterdam University Medical Centers, location VU";;"Netherlands";"Amsterdam";"https://ror.org/00q6h8f30";52.37403;4.88969;"Healthcare";"no";2;8;"https://research-software-directory.org/image/rpc/get_image?uid=aad5192a7aab9cf43c933f3583e172a0c38fe6ec"
"phenotips";"PhenoTips";"https://phenotips.com/index.html";"Canada";;;;;;"no";1;0;"https://research-software-directory.org/image/rpc/get_image?uid=6605b43e7071309b56643a7a2eb5f18d4ad0d437"
"university-of-curacao";"University of Curaçao";"http://www.uoc.cw/";"Curacao";"Willemstad";"https://ror.org/02a46nr93";12.12246;-68.88641;"Education";"no";0;0;
"ibm";"IBM";;"Netherlands";"Amsterdam";"https://ror.org/055yb9v95";52.37403;4.88969;"Company";"no";0;2;"https://research-software-directory.org/image/rpc/get_image?uid=897a0ef89cee8ebf13453383b69c1dc4fe503534"
"ecosystem-thematic-centre";"Ecosystem Thematic Centre";"http://www.icos-etc.eu/";;;;;;;"no";0;0;
"surfnet";"SURFnet";;"Netherlands";;;;;;"no";0;5;"https://research-software-directory.org/image/rpc/get_image?uid=9e270b340a1fbcb21244af11a626dff721b7ff0b"
"netherlands-cancer-institute-nki";"Netherlands Cancer Institute (NKI)";"https://www.nki.nl/";"The Netherlands";"Amsterdam";"https://ror.org/03xqtf034";52.37403;4.88969;"Healthcare";"no";0;0;"https://research-software-directory.org/image/rpc/get_image?uid=44a6b7a45bb8a471d2823d60544eb60314de1c95"
"mcmaster-university";"McMaster University";"http://www.mcmaster.ca/";"Canada";"Hamilton";"https://ror.org/02fa3aq29";43.25011;-79.84963;"Education";"yes";2;1;"https://research-software-directory.org/image/rpc/get_image?uid=e58eac1501d5e6ab4e69f7776baceb00922453a7"
"interdisciplinary-physics-team";"Interdisciplinary Physics Team (InPhyT)";"https://github.com/InPhyT";"International";;;;;;"yes";5;3;"https://research-software-directory.org/image/rpc/get_image?uid=c108e591d3b769a3aad33ed20ebfab1372439e01"
"institute-for-atomic-and-molecular-physics";"Institute for Atomic and Molecular Physics";"http://www.amolf.nl/";"Netherlands";"Amsterdam";"https://ror.org/038x9td67";52.356559;4.948785;"Facility";"no";0;1;"https://research-software-directory.org/image/rpc/get_image?uid=b0d52a98d71b5c34a7bab4c6cf8cc12a348028c3"
"gemeente-groningen";"Gemeente Groningen";"https://gemeente.groningen.nl/";;;;;;;"no";0;1;"https://research-software-directory.org/image/rpc/get_image?uid=7c66131a2bb1f3fe552c0d4913d1d62e7545ed29"
"humboldt-universitat-zu-berlin";"Humboldt-Universität zu Berlin";"https://www.hu-berlin.de/en";"Germany";"Berlin";"https://ror.org/01hcx6992";52.52437;13.41053;"Education";"no";1;0;"https://research-software-directory.org/image/rpc/get_image?uid=790cd931e594b88881ef3e318dc3b8926d9cee81"
"universitat-politecnica-de-valencia";"Universitat Politècnica de València";"http://www.upv.es";"Spain";"Valencia";"https://ror.org/01460j859";39.47391;-0.37966;"Education";"no";0;0;"https://research-software-directory.org/image/rpc/get_image?uid=e00c0cace8541380b000b883840b8383dfea110b"
"fluxys-belgium";"Fluxys Belgium";"https://www.fluxys.com";"Belgium";;;;;;"no";0;1;"https://research-software-directory.org/image/rpc/get_image?uid=85a34737a657936576c8929f808f27dcbb855799"
"leiden-university";"Leiden University";"https://www.universiteitleiden.nl/en/";"Netherlands";"Leiden";"https://ror.org/027bh9e22";52.15833;4.49306;"Education";"yes";8;12;"https://research-software-directory.org/image/rpc/get_image?uid=16cbee73f965590ef85618aa3859f0f7b2bb74a2"
"research-data-alliance";"Research Data Alliance";"https://www.rd-alliance.org/";"Ireland";"Dublin";"https://ror.org/05dc6w374";53.360713;-6.251516;"Nonprofit";"no";0;1;"https://research-software-directory.org/image/rpc/get_image?uid=b2de1e4babe698d746020c076b7c78cc81b89a2a"
"university-of-stuttgart";"University of Stuttgart";"http://www.uni-stuttgart.de/home/index.en.html";"Germany";"Stuttgart";"https://ror.org/04vnq7t77";48.78232;9.17702;"Education";"yes";1;0;"https://research-software-directory.org/image/rpc/get_image?uid=bfea90571875bc0491b6998ce7b2deeb73d10802"
"cornell-university";"Cornell University";"http://www.cornell.edu/";"United States";"Ithaca";"https://ror.org/05bnh6r87";42.44063;-76.49661;"Education";"no";0;1;"https://research-software-directory.org/image/rpc/get_image?uid=e7ac0a2a07f8d6dd39ea29ab7856f66b449c6651"
"national-centre-of-scientific-research-demokritos";"National Centre of Scientific Research ""Demokritos""";"https://www.demokritos.gr";"Greece";"Athens";"https://ror.org/038jp4m40";37.98376;23.72784;"Facility";"no";0;1;"https://research-software-directory.org/image/rpc/get_image?uid=75afa198d40313a252b4c0b5c2c190feee334db6"
"cwts";"Centre for Science and Technology Studies (CWTS)";"https://www.cwts.nl";;;;;;;"yes";0;0;"https://research-software-directory.org/image/rpc/get_image?uid=b70e140b0441a7f5c7628a34c0ddede1ae3af1c7"
"culham-centre-for-fusion-energy";"Culham Centre for Fusion Energy";"http://www.ccfe.ac.uk/";"United Kingdom";"Abingdon";"https://ror.org/05nmyph15";51.658773;-1.2282;"Facility";"no";0;1;"https://research-software-directory.org/image/rpc/get_image?uid=4b6c6f0aac108b69d6bfad24a783e15c86761126"
"liander-netherlands";"Liander (Netherlands)";"https://www.liander.nl/";"Netherlands";"Arnhem";"https://ror.org/011asxc61";51.98;5.91111;"Company";"no";0;1;"https://research-software-directory.org/image/rpc/get_image?uid=24d323ecc9f16a09467eb370de2a88b76742612b"
"research-institute-for-sustainability-helmholtz-centre-potsdam";"Research Institute For Sustainability – Helmholtz Centre Potsdam";"http://www.rifs-potsdam.de";"Germany";"Potsdam";"https://ror.org/01vvnmw35";52.39886;13.06566;"Facility";"no";0;1;"https://research-software-directory.org/image/rpc/get_image?uid=0293ddcdee09bb20db467f2f46b9f08ab43d76c6"
"princeton-university";"Princeton University";"https://www.princeton.edu";"United States";"Princeton";"https://ror.org/00hx57361";40.34872;-74.65905;"Education";"no";0;0;"https://research-software-directory.org/image/rpc/get_image?uid=37330c4828545ffde2b73a1863aa8c446c0c6bf6"
"dalhousie-university";"Dalhousie University";"http://www.dal.ca/";"Canada";"Halifax";"https://ror.org/01e6qks80";44.64269;-63.57688;"Education";"no";1;0;"https://research-software-directory.org/image/rpc/get_image?uid=dfa5d59ac2624d30584f1341701b767db59c8a25"
"german-marine-research-consortium";"German Marine Research Consortium";"http://www.deutsche-meeresforschung.de/en/";"Germany";"Berlin";"https://ror.org/02knxrg60";52.513504;13.393288;"Other";"no";0;1;"https://research-software-directory.org/image/rpc/get_image?uid=640603e9f36e2451fe982b13e5d7b28b49994817"
"csc-it-center-for-science-finland";"CSC - IT Center for Science (Finland)";"https://www.csc.fi/";"Finland";"Espoo";"https://ror.org/04m8m1253";60.2052;24.6522;"Company";"no";0;1;"https://research-software-directory.org/image/rpc/get_image?uid=0bf5f90083a1f2cb4762f43e027e21973a58be13"
"maritime-research-institute-netherlands";"Maritime Research Institute Netherlands";;"Netherlands";"Wageningen";"https://ror.org/01fkbmk11";52.032336;5.632812;"Nonprofit";"no";0;2;"https://research-software-directory.org/image/rpc/get_image?uid=45b51339ef8357a9770b5226a01840f2bbb6c94d"
"centraal-bureau-fondsenwerving";"Centraal Bureau Fondsenwerving";"https://www.cbf.nl/";"Netherlands";;;;;;"no";1;1;"https://research-software-directory.org/image/rpc/get_image?uid=2a5b6a76bc3e7b7ad592e02b7bb62514f0e34730"
"tu-wien";"TU Wien";"https://www.tuwien.at";"Austria";"Vienna";"https://ror.org/04d836q62";48.20849;16.37208;"Education";"no";0;1;"https://research-software-directory.org/image/rpc/get_image?uid=8246e5825da4370bfdb33df981d85668ed4bb4b7"
"ludwig-maximilian-university-of-munich";"Ludwig Maximilian University of Munich";"https://www.en.uni-muenchen.de/index.html";"Germany";"Munich";"https://ror.org/05591te55";48.13743;11.57549;"Education";"no";2;1;"https://research-software-directory.org/image/rpc/get_image?uid=e53d2fb524ee34559c3ab178a738dbc7ad1bb9f2"
"university-of-copenhagen";"University of Copenhagen";"http://www.ku.dk/english/";"Denmark";"Copenhagen";"https://ror.org/035b05819";55.67594;12.56553;"Education";"no";0;2;"https://research-software-directory.org/image/rpc/get_image?uid=dc9c3dcf44639a046836900a56fc97bd46f90f95"
"clare-county-council";"Clare County Council";"https://www.clarecoco.ie/";;;;;;;"no";0;1;"https://research-software-directory.org/image/rpc/get_image?uid=eadea5720308458329e75ba5c5753ca0dc11bc52"
"hasselt-university";"Hasselt University";"http://www.uhasselt.be/en";"Belgium";"Hasselt";"https://ror.org/04nbhqj75";50.93106;5.33781;"Education";"yes";0;0;"https://research-software-directory.org/image/rpc/get_image?uid=ba68316b3ffabf754e80dba0c679ccb32ea13bc8"
"sesvanderhave";"SESVanderHave";;"Belgium";;;;;;"no";0;1;"https://research-software-directory.org/image/rpc/get_image?uid=24d92b43f891a1ce17625b92522dcd5cf79b8548"
"bmw-group";"BMW Group";"https://www.bmwgroup.com/en.html";"Germany";"Munich";"https://ror.org/044kkbh92";48.198191;11.601917;"Company";"no";0;2;"https://research-software-directory.org/image/rpc/get_image?uid=5f9d9c5ba12e19050403a0355001cb6372d10498"
"national-institute-of-science-and-technology-for-software-engineering";"National Institute of Science and Technology for Software Engineering";"http://www.ines.org.br/";"Brazil";"Cachoeirinha";"https://ror.org/00c70d758";-6.114408;-47.765879;"Facility";"no";1;0;"https://research-software-directory.org/image/rpc/get_image?uid=e1c8847cac80195449841baf1bfb9cacad9237cc"
"stichting-democratie-en-media";"Stichting Democratie en Media";"https://www.stdem.org/en/";"Netherlands";;;;;;"no";0;0;
"royal-institute-of-technology";"Royal Institute of Technology";"http://www.kth.se/en";"Sweden";"Stockholm";"https://ror.org/026vcq606";59.32938;18.06871;"Education";"no";0;1;"https://research-software-directory.org/image/rpc/get_image?uid=5677250891b4dd9f320f139e6cd071bfa09d5668"
"waternet";"Waternet";;"Netherlands";;;;;;"no";0;2;"https://research-software-directory.org/image/rpc/get_image?uid=96b3eb872ea1aa74a2fee004ce997062f8843cab"
"ruhr-university-bochum";"Ruhr University Bochum";"https://www.ruhr-uni-bochum.de";"Germany";"Bochum";"https://ror.org/04tsk2644";51.48165;7.21648;"Education";"no";0;1;"https://research-software-directory.org/image/rpc/get_image?uid=243c396598437ffe11e40f2727d9e3130972b41e"
"erasmus-university-medical-center";"Erasmus University Medical Center";"https://www.erasmusmc.nl/";"Netherlands";"Rotterdam";"https://ror.org/018906e22";51.9225;4.47917;"Healthcare";"no";1;9;"https://research-software-directory.org/image/rpc/get_image?uid=1c86e0b30f4749b4e8ed9626707a4be70816cd8c"
"oceans-of-energy";"Oceans of Energy";"https://oceansofenergy.blue/";;;;;;;"no";0;1;"https://research-software-directory.org/image/rpc/get_image?uid=e4f8a48cf12373fad903798d74c3b086fcdae8de"
"friedrich-schiller-university-jena";"Friedrich Schiller University Jena";"https://www.uni-jena.de/en";"Germany";"Jena";"https://ror.org/05qpz1x62";50.92878;11.5899;"Education";"no";1;0;"https://research-software-directory.org/image/rpc/get_image?uid=5c4ca3e7675f2c9dc57f88343a9f1111d86ef2db"
"siemens-gamesa-renewable-energy";"Siemens Gamesa Renewable Energy";"https://www.siemensgamesa.com/en-int";;;;;;;"no";0;1;"https://research-software-directory.org/image/rpc/get_image?uid=f49637608c181d3672e445f30434c00113995ed7"
"research-data-management";"Research Data Management";"https://www.amsterdamumc.org/en/research-support/data-management.htm";"Netherlands";;;;;;"no";0;0;
"university-medical-center-groningen";"University Medical Center Groningen";;"Netherlands";"Groningen";"https://ror.org/03cv38k47";53.222794;6.574039;"Healthcare";"no";0;3;"https://research-software-directory.org/image/rpc/get_image?uid=f596815d73233cba31312abc5116a35137b2f59c"
"nederlandse-gasunie-netherlands";"Nederlandse Gasunie (Netherlands)";"https://www.gasunie.nl/en/";"Netherlands";"Groningen";"https://ror.org/01r5d6p07";53.20103;6.550742;"Company";"no";0;2;"https://research-software-directory.org/image/rpc/get_image?uid=72d4c40393dcb29ff966d59c46b27c5ab674ea41"
"institute-of-atmospheric-physics";"Institute of Atmospheric Physics";"http://english.iap.cas.cn/au";"China";"Beijing";"https://ror.org/0424h4e32";39.9075;116.39723;"Facility";"no";0;1;"https://research-software-directory.org/image/rpc/get_image?uid=527c479bf469a169ce6450895ce1c7d49de914a1"
"erasmus-university-rotterdam";"Erasmus University Rotterdam";;"Netherlands";"Rotterdam";"https://ror.org/057w15z03";51.9225;4.47917;"Education";"no";1;4;"https://research-software-directory.org/image/rpc/get_image?uid=6f656ac29db621d51b42649b676b3b37f8133ae5"
"the-research-council-of-norway";"The Research Council of Norway";"http://www.forskningsradet.no/en/Home_page/1177315753906";"Norway";"Oslo";"https://ror.org/00epmv149";59.91273;10.74609;"Government";"no";0;1;"https://research-software-directory.org/image/rpc/get_image?uid=bac52e0ca2f5615bf0ccb59ad79aada4a370da49"
"netbeheer-nederland";"Netbeheer Nederland";"https://www.netbeheernederland.nl/";;;;;;;"no";0;1;"https://research-software-directory.org/image/rpc/get_image?uid=f027827c6ad0910dde17e4a88b02408487c36747"
"atos-france";"Atos (France)";"http://fr.atos.net/fr-fr/accueil.html";"France";"Bezons";"https://ror.org/015w2wb33";48.924587;2.221059;"Company";"no";0;1;"https://research-software-directory.org/image/rpc/get_image?uid=e0d78c62518ec0c98080d5306ac607fd9a502aca"
"kings-college-london";"King's College London";"http://www.kcl.ac.uk/index.aspx";"United Kingdom";"London";"https://ror.org/0220mzb33";51.50853;-0.12574;"Education";"no";0;1;"https://research-software-directory.org/image/rpc/get_image?uid=a1cca2fbfe716b64eb8eb75093318cbce145c3ee"
"rijk-zwaan";"Rijk Zwaan";;"Netherlands";"De Lier";"https://ror.org/00dzkep57";51.973183;4.255522;"Company";"no";0;1;"https://research-software-directory.org/image/rpc/get_image?uid=7bcffe02db4c107a93a6340d2112c9bc2dca9dfb"
"united-nations-educational-scientific-and-cultural-organization";"United Nations Educational, Scientific and Cultural Organization";"http://en.unesco.org/";"France";"Paris";"https://ror.org/04h4z8k05";48.85341;2.3488;"Government";"no";0;1;"https://research-software-directory.org/image/rpc/get_image?uid=b6958466ecc12b03748ea0316f1c2e9230d57c55"
"fondazione-bruno-kessler";"Fondazione Bruno Kessler";"http://www.fbk.eu/";"Italy";"Trento";"https://ror.org/01j33xk10";46.06787;11.12108;"Facility";"no";0;1;"https://research-software-directory.org/image/rpc/get_image?uid=5685a3ec2ee33cce55e2fee48b89a82cf6d1f488"
"agh-university-of-science-and-technology";"AGH University of Science and Technology";;"Poland";"Krakow";"https://ror.org/00bas1c41";50.06143;19.93658;"Education";"no";0;1;"https://research-software-directory.org/image/rpc/get_image?uid=10c26cd3b1bca684f05c4690d2475149e327f6c4"
"universidade-federal-de-santa-maria";"Universidade Federal de Santa Maria";"https://www.ufsm.br/";"Brazil";"Santa Maria";"https://ror.org/01b78mz79";-29.713514;-53.716172;"Education";"no";1;0;"https://research-software-directory.org/image/rpc/get_image?uid=369c82caa7a8f6ddc482cb849389d4ae2311bebd"
"ignition-computing";"Ignition Computing";"https://ignitioncomputing.com/";;;;;;;"no";1;1;"https://research-software-directory.org/image/rpc/get_image?uid=38ed8bae15cb1502e74862b96fa4ef5f3e119700"
"freie-universitat-berlin";"Freie Universität Berlin";"https://www.fu-berlin.de";"Germany";"Berlin";"https://ror.org/046ak2485";52.52437;13.41053;"Education";"no";1;0;"https://research-software-directory.org/image/rpc/get_image?uid=9167b5c571c705caf8c4dbdadfbbf74e9d4f7a72"
"gemeente-maastricht";"Gemeente Maastricht";"https://www.gemeentemaastricht.nl/";"Netherlands";;;;;;"no";0;1;"https://research-software-directory.org/image/rpc/get_image?uid=67aa118a814e93d108634b3dbfb060b381215a25"
"hollings-marine-laboratory";"Hollings Marine Laboratory";"https://www.nist.gov/mml/hollings-marine-laboratory/hml-overview";"United States";"Charleston";"https://ror.org/01hp6xm80";32.77657;-79.93092;"Facility";"no";1;0;"https://research-software-directory.org/image/rpc/get_image?uid=d69607e609ec4c6e0a5ee8ef064b68d58c843e6c"
"university-of-california-san-diego";"University of California, San Diego";"http://ucsd.edu/";"United States";"San Diego";"https://ror.org/0168r3w48";32.71571;-117.16472;"Education";"no";0;1;"https://research-software-directory.org/image/rpc/get_image?uid=20b5d827f27e6b8a95fd22e047f30988eafb57ac"
"canadas-michael-smith-genome-sciences-centre";"Canada's Michael Smith Genome Sciences Centre";"http://www.bcgsc.ca/";"Canada";"Vancouver";"https://ror.org/0333j0897";49.24966;-123.11934;"Other";"no";1;0;"https://research-software-directory.org/image/rpc/get_image?uid=7a11081e6f599755a94488402afd2b96172087d5"
"alfred-wegener-institute";"Alfred Wegener Institute";"https://www.awi.de/en.html";"Germany";"Bremerhaven";"https://ror.org/032e6b942";53.53615;8.59298;"Facility";"no";2;0;"https://research-software-directory.org/image/rpc/get_image?uid=36e7eb3cbd9863b348fe3904042bbf1cb18d6090"
"drexel-university";"Drexel University";"http://drexel.edu";"United States";"Philadelphia";"https://ror.org/04bdffz58";39.95238;-75.16362;"Education";"no";0;2;"https://research-software-directory.org/image/rpc/get_image?uid=23d1ec0b0fee3630603063231dd040fbefaf0b77"
"12-to-zero";"12 To Zero";"https://www.12tozero.com/";;;;;;;"no";0;1;"https://research-software-directory.org/image/rpc/get_image?uid=82af71a7f712dcc7abfe90c88e1f511c06e227f9"
"university-of-antwerp";"University of Antwerp";"https://www.uantwerpen.be/en/";"Belgium";"Antwerp";"https://ror.org/008x57b05";51.222729;4.40843;"Education";"no";1;0;"https://research-software-directory.org/image/rpc/get_image?uid=39fe0e873c4596f22413dc64fc2db9a8248696a2"
"medical-informatics";"Medical Informatics";"https://www.amc.nl/web/research-75/departments/medical-informatics-1.htm";;;;;;;"no";0;0;
"eth-zurich";"ETH Zurich";"https://ethz.ch";"Switzerland";"Zurich";"https://ror.org/05a28rw58";47.36667;8.55;"Education";"no";4;1;"https://research-software-directory.org/image/rpc/get_image?uid=96bb17edf995535b1d75c69f4f0ba0c0be35f3b1"
"neo";"NEO";"https://www.neo.nl/";"Netherlands";;;;;;"no";0;1;"https://research-software-directory.org/image/rpc/get_image?uid=2f6e3fa7fd8310733a10e0fa8b76f6d6a9ba1f35"
"hafrannsoknastofnunin";"Hafrannsoknastofnunin";"https://www.hafogvatn.is/";"Iceland";;;;;;"no";0;1;"https://research-software-directory.org/image/rpc/get_image?uid=9031b23cf378d65ca9071af6dd4bf75b06a103b8"
"potsdam-institute-for-climate-impact-research";"Potsdam Institute for Climate Impact Research";"https://www.pik-potsdam.de/";"Germany";"Potsdam";"https://ror.org/03e8s1d88";52.381282;13.064152;"Facility";"no";1;1;"https://research-software-directory.org/image/rpc/get_image?uid=e6e2106a6332a5e503d7053e2b80224f32b565dd"
"netherlands-institute-for-space-research";"SRON Netherlands Institute for Space Research";"https://www.sron.nl/";"Netherlands";"Utrecht";"https://ror.org/02wc0kq10";52.09083;5.12222;"Facility";"yes";2;1;"https://research-software-directory.org/image/rpc/get_image?uid=adcaa7cb6e0c9c01a3159ae57f538841ed33f848"
"atmosphere-thematic-centre";"Atmosphere Thematic Centre";"https://icos-atc.lsce.ipsl.fr/";;;;;;;"no";0;0;
"nansen-environmental-and-remote-sensing-center";"Nansen Environmental and Remote Sensing Center";"https://www.nersc.no/";"Russia";"St Petersburg";"https://ror.org/015th0q50";59.93863;30.31413;"Nonprofit";"no";0;1;"https://research-software-directory.org/image/rpc/get_image?uid=410fc221983a0d91a88abd5b56ecf26d5a7e5b3a"
"fundacao-de-amparo-a-pesquisa-do-estado-da-bahia";"Fundação de Amparo à Pesquisa do Estado da Bahia";"http://www.fapesb.ba.gov.br/";"Brazil";"Salvador";"https://ror.org/0473khm44";-13.007801;-38.512095;"Government";"no";1;0;"https://research-software-directory.org/image/rpc/get_image?uid=e685dbb24058c14d71477b188f67f397d82ac705"
"the-abdus-salam-international-centre-for-theoretical-physics";"The Abdus Salam International Centre for Theoretical Physics";"https://www.ictp.it/";"Italy";"Trieste";"https://ror.org/009gyvm78";45.64953;13.77678;"Facility";"no";0;0;"https://research-software-directory.org/image/rpc/get_image?uid=7b92f0e0bfa0ac610f47a0dec1bc53b2d25a1fed"
"simon-fraser-university";"Simon Fraser University";"http://www.sfu.ca/";"Canada";"Burnaby";"https://ror.org/0213rcc28";49.26636;-122.95263;"Education";"no";2;0;"https://research-software-directory.org/image/rpc/get_image?uid=9ba84d822a32da37a160ee2b3007b27f385f442e"
"danish-meteorological-institute";"Danish Meteorological Institute";"http://ocean.dmi.dk/english/";"Denmark";"Copenhagen";"https://ror.org/020m6x732";55.67594;12.56553;"Facility";"no";1;2;"https://research-software-directory.org/image/rpc/get_image?uid=9002ac7576c97d0535cbce3b0526d10818b9e026"
"colorado-state-university";"Colorado State University";"http://www.colostate.edu/";"United States";"Fort Collins";"https://ror.org/03k1gpj17";40.58526;-105.08442;"Education";"no";0;1;"https://research-software-directory.org/image/rpc/get_image?uid=6273aadff2e21dd476f1f3032fcc8bd4a52563f0"
"university-of-salento";"University of Salento";"https://www.unisalento.it/web/guest/home_page";"Italy";"Lecce";"https://ror.org/03fc1k060";40.35481;18.17244;"Education";"no";0;1;"https://research-software-directory.org/image/rpc/get_image?uid=3ff1a03b55a4227274dc692f021073ea501f2eb6"
"national-institute-for-public-health-and-the-environment";"National Institute for Public Health and the Environment";"http://www.rivm.nl/en/";"Netherlands";"De Bilt";"https://ror.org/01cesdt21";52.11;5.18056;"Facility";"no";0;1;"https://research-software-directory.org/image/rpc/get_image?uid=36bbcf2b8c369f349c038e7c82cd9d45431b3655"
"ontario-brain-institute";"Ontario Brain Institute";"http://www.braininstitute.ca/homepage";"Canada";"Toronto";"https://ror.org/05ecdew94";43.70011;-79.4163;"Nonprofit";"no";1;0;"https://research-software-directory.org/image/rpc/get_image?uid=8d9aa43d1fb583a3ce61c3971f23c404284d9fe7"
"lawrence-berkeley-national-laboratory";"Lawrence Berkeley National Laboratory";"http://www.lbl.gov/";"United States";"Berkeley";"https://ror.org/02jbv0t02";37.87159;-122.27275;"Facility";"no";0;1;"https://research-software-directory.org/image/rpc/get_image?uid=3ec9d835660d71f31a83648fce94c3e19f184fb7"
"university-of-cambridge";"University of Cambridge";"http://www.cam.ac.uk/";"United Kingdom";"Cambridge";"https://ror.org/013meh722";52.2;0.11667;"Education";"no";2;0;"https://research-software-directory.org/image/rpc/get_image?uid=aca4b51fb3743609f2f9a8c2716285a4f6755005"
"lablicate";"Lablicate";"https://lablicate.com/";;;;;;;"no";1;0;"https://research-software-directory.org/image/rpc/get_image?uid=75d8417e1a19400ac34fad068991b6ab81704c71"
"university-college-dublin";"University College Dublin";"http://www.ucd.ie/";"Ireland";"Dublin";"https://ror.org/05m7pjf47";53.33306;-6.24889;"Education";"no";0;1;"https://research-software-directory.org/image/rpc/get_image?uid=d355c3637b72972d0e80cd346b95e347afc247a8"
"clarin";"CLARIN";;"Europe";;;;;;"no";0;1;"https://research-software-directory.org/image/rpc/get_image?uid=891e19c4f64df7d5368e017ab5da42c60e916296"
"port-of-amsterdam";"Port of Amsterdam";"https://www.portofamsterdam.com/en";;;;;;;"no";0;1;"https://research-software-directory.org/image/rpc/get_image?uid=dccac55fdc154945b15c401157e66c6932bc4b42"
"poznan-supercomputing-and-networking-center";"Poznan Supercomputing and Networking Center";"https://www.psnc.pl/";"Poland";"Poznan";"https://ror.org/025cj6e44";52.40692;16.92993;"Nonprofit";"no";0;1;"https://research-software-directory.org/image/rpc/get_image?uid=c7dff3c78f85eddc0feab019414015673ac5dc22"
"shannon-foynes-port-company";"Shannon Foynes Port Company";"https://www.sfpc.ie/";;;;;;;"no";0;1;"https://research-software-directory.org/image/rpc/get_image?uid=e6f42b04fc5238f89bb353cd56e9244512d56fca"
"uk-research-and-innovation";"UK Research and Innovation";"https://www.ukri.org/";"United Kingdom";"Swindon";"https://ror.org/001aqnf71";51.55797;-1.78116;"Government";"no";0;3;"https://research-software-directory.org/image/rpc/get_image?uid=f2027e8e1e2785beb9f37b0ec1689da5bee68989"
"european-university-institute";"European University Institute";"http://www.eui.eu/";"Italy";"Florence";"https://ror.org/0031wrj91";43.77925;11.24626;"Education";"no";0;1;"https://research-software-directory.org/image/rpc/get_image?uid=1e85aa3714099734015c9bfc752e85279ef849f1"
"synerscope";"SynerScope";"https://www.synerscope.com/about/";;;;;;;"no";0;1;"https://research-software-directory.org/image/rpc/get_image?uid=d6b9cd311ee48cfaf20caed0109426a8f45a0f40"
"prins-bernhard-cultuurfonds";"Prins Bernhard Cultuurfonds";"https://www.cultuurfonds.nl/";"Netherlands";"Amsterdam";"https://ror.org/05j159997";52.365088;4.891595;"Nonprofit";"no";0;0;
"crosswind";"CrossWind";"https://www.crosswindhkn.nl/";;;;;;;"no";0;1;"https://research-software-directory.org/image/rpc/get_image?uid=f51e92a13bdda71930f4867e92dba0be6a3a1045"
"geomar-helmholtz-centre-for-ocean-research-kiel";"GEOMAR Helmholtz Centre for Ocean Research Kiel";"http://www.geomar.de/en/";"Germany";"Kiel";"https://ror.org/02h2x0161";54.32133;10.13489;"Facility";"no";0;1;"https://research-software-directory.org/image/rpc/get_image?uid=fa6d1e5e80497030461dc76c184928348f6b48f3"
"geodan";"Geodan";"http://www.geodan.com";"Netherlands";;;;;;"no";0;1;"https://research-software-directory.org/image/rpc/get_image?uid=7f3a8a159bbf1c3c3be138b8a76d894f0c4636a8"
"moveshelf-bv";"Moveshelf b.v.";"https://moveshelf.com/";;;;;;;"no";0;1;"https://research-software-directory.org/image/rpc/get_image?uid=dd95a20f69144442a536506761dbf63b0f29463e"
"university-of-cologne";"University of Cologne";"http://www.portal.uni-koeln.de/";"Germany";"Cologne";"https://ror.org/00rcxh774";50.93333;6.95;"Education";"no";0;1;"https://research-software-directory.org/image/rpc/get_image?uid=b3b4d3e4ffe51a4ea5e5a796d369510b45871df6"
"province-zuid-holland";"Province Zuid-Holland";"https://www.zuid-holland.nl/";;;;;;;"no";0;1;"https://research-software-directory.org/image/rpc/get_image?uid=e155bd975239d02e6cfcc1f8fbc643a7044486f8"
"university-of-milan";"University of Milan";"http://www.unimi.it/ENG/";"Italy";"Milan";"https://ror.org/00wjc7c48";45.46427;9.18951;"Education";"no";0;1;"https://research-software-directory.org/image/rpc/get_image?uid=1bbbe52e209db90bf605640070f154b9cfa8947f"
"ministry-of-education-culture-and-science";"Ministry of Education Culture and Science";"http://www.government.nl/ministries/ocw";"Netherlands";"The Hague";"https://ror.org/02x3w5g21";52.080509;4.322199;"Government";"no";0;4;"https://research-software-directory.org/image/rpc/get_image?uid=1ba0cf81e06447a4373192e962367ab48d04b998"
"european-media-laboratory-germany";"European Media Laboratory (Germany)";"https://www.eml.org/";"Germany";"Heidelberg";"https://ror.org/02rbfgr17";49.418817;8.675859;"Company";"no";1;0;"https://research-software-directory.org/image/rpc/get_image?uid=76fdeab3b9abb00ba3d5d41c1c1c5c8a2b3700ec"
"environment-and-climate-change-canada";"Environment and Climate Change Canada";"https://www.canada.ca/en/environment-climate-change.html";"Canada";"Gatineau";"https://ror.org/026ny0e17";45.425373;-75.699862;"Government";"no";2;0;"https://research-software-directory.org/image/rpc/get_image?uid=9f9d995e185dd853fa88f082425cf4e6622269ca"
"university-corporation-for-atmospheric-research";"University Corporation for Atmospheric Research";"https://www2.ucar.edu/";"United States";"Boulder";"https://ror.org/04zhhyn23";40.01499;-105.27055;"Nonprofit";"no";0;1;"https://research-software-directory.org/image/rpc/get_image?uid=66c4710b45042878c230b598d5168fd3a450a3fc"
"vtt-technical-research-centre-of-finland";"VTT Technical Research Centre of Finland";"http://www.vttresearch.com/";"Finland";"Espoo";"https://ror.org/04b181w54";60.2052;24.6522;"Nonprofit";"no";0;1;"https://research-software-directory.org/image/rpc/get_image?uid=5f9f87fb14ea3f0f4bf7f5c153f9cc199ee9dd8c"
"shell-netherlands";"Shell (Netherlands)";"http://www.shell.com/";"Netherlands";"The Hague";"https://ror.org/00b5m4j81";52.07667;4.29861;"Company";"no";0;1;"https://research-software-directory.org/image/rpc/get_image?uid=8bcab3c22f8488013037a7d17b417203ea6fe251"
"centre-national-de-recherches-meteorologiques";"Centre National de Recherches Météorologiques";"http://www.umr-cnrm.fr/?lang=fr";"France";"Toulouse";"https://ror.org/004rej139";43.57524;1.372572;"Facility";"no";0;0;"https://research-software-directory.org/image/rpc/get_image?uid=bbb4c8d014d1415a271384d751c4257a47ac3c6a"
"mercator-ocean-france";"Mercator Ocean (France)";"http://www.mercator-ocean.fr/";"France";"Ramonville-Saint-Agne";"https://ror.org/02754py23";43.55054;1.485693;"Company";"no";0;1;"https://research-software-directory.org/image/rpc/get_image?uid=d087b2c5af8d0327cc5e276c06d8360ea75dde12"
"university-of-saskatchewan";"University of Saskatchewan";"https://www.usask.ca/";"Canada";"Saskatoon";"https://ror.org/010x8gc63";52.13238;-106.66892;"Education";"no";1;0;"https://research-software-directory.org/image/rpc/get_image?uid=70d69cacf1ca965be49cdcf2eb7db3012348c142"
"natural-environment-research-council";"Natural Environment Research Council";"http://www.nerc.ac.uk/";"United Kingdom";"Swindon";"https://ror.org/02b5d8509";51.55797;-1.78116;"Government";"no";0;1;"https://research-software-directory.org/image/rpc/get_image?uid=2dc0315098a749b3126b908065a114953db74495"
"huisman-netherlands";"Huisman (Netherlands)";"http://www.huismanequipment.com/";"Netherlands";"Schiedam";"https://ror.org/0372zyg05";51.90776;4.38267;"Company";"no";0;1;"https://research-software-directory.org/image/rpc/get_image?uid=f13e5555fdad8274add446b808a14a3467010583"
"national-institute-of-standards-and-technology";"National Institute of Standards and Technology";"http://www.nist.gov/";"United States";"Gaithersburg";"https://ror.org/05xpvk416";39.14344;-77.20137;"Government";"no";0;0;
"centraal-bureau-voor-de-statistiek";"Centraal Bureau voor de Statistiek";"http://www.cbs.nl/en-GB/menu/home/default.htm?Languageswitch=on";"Netherlands";"The Hague";"https://ror.org/0408v4c28";52.066217;4.399404;"Other";"no";0;0;
"university-of-british-columbia";"University of British Columbia";"https://www.ubc.ca/";"Canada";"Vancouver";"https://ror.org/03rmrcq20";49.24966;-123.11934;"Education";"no";1;0;"https://research-software-directory.org/image/rpc/get_image?uid=e10bea1ea683932f3685641c40686b77daa93a57"
"wellcome-trust";"Wellcome Trust";"http://www.wellcome.ac.uk";"United Kingdom";"London";"https://ror.org/029chgv08";51.50853;-0.12574;"Nonprofit";"no";1;1;"https://research-software-directory.org/image/rpc/get_image?uid=091deb135017ae18b8d08a94c8144675a81e6584"
"university-of-washington";"University of Washington";"http://www.washington.edu/";"United States";"Seattle";"https://ror.org/00cvxb145";47.60621;-122.33207;"Education";"no";0;1;"https://research-software-directory.org/image/rpc/get_image?uid=f7ec72dc916a12e6561a867497fbed0c1ddb3497"
"university-of-bremen";"University of Bremen";"https://www.uni-bremen.de";"Germany";"Bremen";"https://ror.org/04ers2y35";53.07582;8.80717;"Education";"no";2;0;"https://research-software-directory.org/image/rpc/get_image?uid=925419407c6995eb49ed1d402a62db24c5f62a79"
"norwegian-institute-of-marine-research";"Norwegian Institute of Marine Research";"http://www.imr.no/en";"Norway";"Bergen";"https://ror.org/05vg74d16";60.39299;5.32415;"Facility";"no";1;0;"https://research-software-directory.org/image/rpc/get_image?uid=7b075d3b166f9aac59ce3c826fe170d2d73b6758"
"medizinische-hochschule-hannover";"Medizinische Hochschule Hannover";"https://www.mhh.de";"Germany";"Hanover";"https://ror.org/00f2yqf98";52.37052;9.73322;"Education";"no";1;0;"https://research-software-directory.org/image/rpc/get_image?uid=011d351dcaebf649d62dd9afe98f79de2cdd2096"
"fast-data-science-ltd";"Fast Data Science Ltd";"https://fastdatascience.com/";;;;;;;"no";1;0;"https://research-software-directory.org/image/rpc/get_image?uid=44520c7a5a4313eaaa5641abbd51663dfc8387b7"
"jive";"JIVE";;"Netherlands";"Dwingeloo";"https://ror.org/006dmc180";52.813351;6.395999;"Other";"no";0;1;"https://research-software-directory.org/image/rpc/get_image?uid=087972d3e78dfd9bca0db9cadcba0db225eca4b6"
"nederlands-mijnmuseum";"Nederlands Mijnmuseum";"https://www.nederlandsmijnmuseum.nl/";"Netherlands";;;;;;"no";0;1;"https://research-software-directory.org/image/rpc/get_image?uid=925e7bd9bb0273dc7d21420da3c62c23a33f8b4c"
"thermo-fisher-scientific-netherlands";"Thermo Fisher Scientific (Netherlands)";"https://www.thermofisher.com/";"Netherlands";"Eindhoven";"https://ror.org/01139ec29";51.46908;5.42141;"Company";"no";0;1;"https://research-software-directory.org/image/rpc/get_image?uid=ba1a1d77bf33bec7c12643074d1e66a2a0b6a2dd"
"zefiros-software";"Zefiros Software";"https://zefiros.eu/";"Netherlands";;;;;;"no";1;0;"https://research-software-directory.org/image/rpc/get_image?uid=4ae85a1ae95858d33c28ecb3ba31b0674328733b"
"quantum-application-lab";"Quantum Application Lab";"https://quantumapplicationlab.com/";;;;;;;"no";0;1;"https://research-software-directory.org/image/rpc/get_image?uid=6ce15af7acbae58b860245be88e6aa8b1955560e"
"digital-methods-initiative";"Digital Methods Initiative";"https://digitalmethods.net";;;;;;;"no";2;0;"https://research-software-directory.org/image/rpc/get_image?uid=df75edb73be9750c669ba0b4f33b4caecdd849e6"
"max-planck-society";"Max Planck Society";"http://www.mpg.de/en";"Germany";"Munich";"https://ror.org/01hhn8329";48.13743;11.57549;"Nonprofit";"no";0;1;"https://research-software-directory.org/image/rpc/get_image?uid=ed50bb46311f2bdedf8a66b5d736a201ccee4c8e"
"university-of-lapland";"University of Lapland";"http://www.ulapland.fi/InEnglish";"Finland";"Rovaniemi";"https://ror.org/05jzt8766";66.5;25.71667;"Education";"no";0;1;"https://research-software-directory.org/image/rpc/get_image?uid=9f480af3727ad0551cd825b11a7ddd823d5f4a47"
"nationaal-archief-of-the-netherlands";"Nationaal Archief of the Netherlands";"http://www.nationaalarchief.nl/";"Netherlands";"The Hague";"https://ror.org/0546dmt59";52.081475;4.326382;"Archive";"no";0;0;
"university-medical-center-utrecht";"University Medical Center Utrecht";"https://www.umcutrecht.nl/";"Netherlands";"Utrecht";"https://ror.org/0575yy874";52.09083;5.12222;"Healthcare";"no";4;8;"https://research-software-directory.org/image/rpc/get_image?uid=87b2a2d20eb4c0359782642d5d01babd950d8da5"
"siemens";"Siemens";"https://www.siemens.com/";"Netherlands";"Amsterdam";"https://ror.org/02mt4w922";52.084371;4.335145;"Company";"no";0;1;"https://research-software-directory.org/image/rpc/get_image?uid=d92571e8afcca0980599d763913a1123db7ebf2c"
"physik-instrumente";"Physik Instrumente";"https://www.physikinstrumente.com/en/";;;;;;;"no";0;1;"https://research-software-directory.org/image/rpc/get_image?uid=9cf8cc189b2150b9d9578bb075c4b5d48244c586"
"vitens";"Vitens";"https://www.vitens.nl/";;;;;;;"no";0;1;"https://research-software-directory.org/image/rpc/get_image?uid=1d5ece7990f80000383375df4b9200828d46a9ee"
"oracle";"Oracle";"https://www.oracle.com/database/index.html";"United States";;;;;;"no";0;1;"https://research-software-directory.org/image/rpc/get_image?uid=f0057645f3cd602c8d93bdad27971c578b9f1775"
"delft-university-of-technology";"Delft University of Technology";"http://tudelft.nl";"Netherlands";"Delft";"https://ror.org/02e2c7k09";52.00667;4.35556;"Education";"no";27;42;"https://research-software-directory.org/image/rpc/get_image?uid=9c280159ba9ecd0dec6076c7d4364d3233b89b71"
"software-for-chemicals-materials";"Software for Chemicals & Materials";;"Netherlands";"Amsterdam";"https://ror.org/025tsch51";52.332993;4.865608;"Company";"no";1;1;"https://research-software-directory.org/image/rpc/get_image?uid=7de66e00fd01216ed919253f7d3ca947b7c0f4eb"
"technische-universitat-braunschweig";"Technische Universität Braunschweig";;"Germany";"Braunschweig";"https://ror.org/010nsgg66";52.26594;10.52673;"Education";"no";0;1;"https://research-software-directory.org/image/rpc/get_image?uid=2b9bcfdcff8de66bed6931de879b8798c09f5a31"
"offshorewind4kids";"OffshoreWind4Kids";"https://www.offshorewind4kids.com/";;;;;;;"no";0;1;"https://research-software-directory.org/image/rpc/get_image?uid=ddee0c2fb0814dac489af50f342017e052dadde4"
"naturalis-biodiversity-center";"Naturalis Biodiversity Center";"http://www.naturalis.nl/";"Netherlands";"Leiden";"https://ror.org/0566bfb96";52.15833;4.49306;"Archive";"no";1;1;"https://research-software-directory.org/image/rpc/get_image?uid=28445c70b326195b958111141f3797ae490bcc76"
"royal-netherlands-institute-for-sea-research";"Royal Netherlands Institute for Sea Research";"https://www.nioz.nl/en";"Netherlands";"Den Burg";"https://ror.org/01gntjh03";53.05417;4.79722;"Facility";"no";0;2;"https://research-software-directory.org/image/rpc/get_image?uid=7cc0067d1af72a6a241308b0066f1249a0f06789"
"meijer";"Meijer";;"Netherlands";;;;;;"no";0;1;"https://research-software-directory.org/image/rpc/get_image?uid=ea39c46a1734afab4d06a6d8ea49574395973b7f"
"radboud-university-nijmegen";"Radboud University Nijmegen";"http://www.ru.nl/";"The Netherlands";"Nijmegen";"https://ror.org/016xsfp80";51.8425;5.85278;"Education";"no";22;21;"https://research-software-directory.org/image/rpc/get_image?uid=61e31c627f82da5c0b49107783b01dbca4c7a3fe"
"european-molecular-biology-laboratory";"European Molecular Biology Laboratory";"http://www.embl-hamburg.de/";"Germany";"Hamburg";"https://ror.org/050589e39";53.55073;9.99302;"Government";"no";0;0;"https://research-software-directory.org/image/rpc/get_image?uid=73647722bb08a3fdce51b04d63eae942b7916ded"
"walter-and-duncan-gordon-foundation";"Walter and Duncan Gordon Foundation";"http://gordonfoundation.ca/";"Canada";"Toronto";"https://ror.org/02gvqsb68";43.70011;-79.4163;"Nonprofit";"no";1;0;"https://research-software-directory.org/image/rpc/get_image?uid=2b562ce0c4309020ee4ae43986e6836ed280fb20"
"universite-de-sherbrooke";"Université de Sherbrooke";"http://www.usherbrooke.ca/";"Canada";"Sherbrooke";"https://ror.org/00kybxq39";45.40008;-71.89908;"Education";"no";1;0;"https://research-software-directory.org/image/rpc/get_image?uid=54a562656396f6207c004c5e5064718fd224b38a"
"netherlands-environmental-assessment-agency";"Netherlands Environmental Assessment Agency";"http://www.pbl.nl/en/";"Netherlands";"The Hague";"https://ror.org/052x1hs80";52.07667;4.29861;"Facility";"no";1;2;"https://research-software-directory.org/image/rpc/get_image?uid=7c488637f6f641cd42642b293810eacfcfa2b756"
"openms";"OpenMS";"https://www.openms.de/";"International";;;;;;"no";1;0;"https://research-software-directory.org/image/rpc/get_image?uid=86ff6d797aaad8d1210292763fd537c341d66621"
"dlr";"DLR";"https://www.dlr.de";"Germany";"Cologne";"https://ror.org/04bwf3e34";50.93333;6.95;"Facility";"no";4;3;"https://research-software-directory.org/image/rpc/get_image?uid=7cfc6dabdcb79a03eecfbb02ebb8158927362fea"
"enexis";"Enexis";"https://www.enexis.nl/";;;;;;;"no";0;1;"https://research-software-directory.org/image/rpc/get_image?uid=d2078db06fc750371a4c66217dbbc4e3110c137b"
"tata-memorial-centre";"Tata Memorial Centre";;"India";"Mumbai";"https://ror.org/010842375";19.07283;72.88261;"Healthcare";"no";0;1;"https://research-software-directory.org/image/rpc/get_image?uid=297a92efde2a2e3194d020c15e42931a02120193"
"ocean-networks-canada-society";"Ocean Networks Canada Society";"http://www.oceannetworks.ca/";"Canada";"Victoria";"https://ror.org/05gknh003";48.4359;-123.35155;"Facility";"no";4;0;"https://research-software-directory.org/image/rpc/get_image?uid=062e4e7cd2d51a5f8921f6719da984fa3bf2f541"
"atomic-energy-and-alternative-energies-commission";"Atomic Energy and Alternative Energies Commission";"http://www.cea.fr/";"France";"Paris";"https://ror.org/00jjx8s55";48.85341;2.3488;"Government";"no";0;1;"https://research-software-directory.org/image/rpc/get_image?uid=f68ddbd97a0b738bf02640b1e655756449f5359d"
"nizo";"NIZO";;"Netherlands";"Ede";"https://ror.org/05ddg7v64";52.052118;5.662516;"Facility";"no";0;1;"https://research-software-directory.org/image/rpc/get_image?uid=332821ced21ea70b1aaf60f70b5587743d90908a"
"netherlands-institute-for-sound-and-vision";"Netherlands Institute for Sound and Vision";"http://www.beeldengeluid.nl/";"Netherlands";"Hilversum";"https://ror.org/025ae8628";52.22333;5.17639;"Archive";"no";0;1;"https://research-software-directory.org/image/rpc/get_image?uid=42a6976bca4d2dfa6ba7e57476ddf0c63b72726b"
"tennet-tso";"TenneT TSO";"https://www.tennet.eu/";"Netherlands";"Arnhem";"https://ror.org/02dyts510";51.98;5.91111;"Company";"no";0;3;"https://research-software-directory.org/image/rpc/get_image?uid=cdf4501499a84a01d740dcf6fe3805607161aacc"
"liacs-leiden-university";"LIACS, Leiden University";"https://liacs.leidenuniv.nl/";"Netherlands";;;;;;"no";0;0;"https://research-software-directory.org/image/rpc/get_image?uid=76c5d32c8f5b7c4d0bb2893495d8fcc918dfdf7b"
"maastro";"Maastro";;"Netherlands";"Maastricht";"https://ror.org/059wkzj26";50.836296;5.715083;"Healthcare";"no";1;4;"https://research-software-directory.org/image/rpc/get_image?uid=bf4a0c74bcf8e14441ae5235bf03325a39748e4b"
"latest-thinking";"Latest Thinking";"https://lt.org/";"Germany";;;;;;"no";0;1;"https://research-software-directory.org/image/rpc/get_image?uid=4ad3d9323021155dfbbe1bac8b6e0eb7400c75b0"
"university-of-potsdam";"University of Potsdam";"https://www.uni-potsdam.de/en/";"Germany";"Potsdam";"https://ror.org/03bnmw459";52.39886;13.06566;"Education";"no";3;1;"https://research-software-directory.org/image/rpc/get_image?uid=2fbc100a09b95d648d653170095ae4fda01c3672"
"royal-haskoningdhv";"Royal HaskoningDHV";;"Netherlands";"Amersfoort";"https://ror.org/020v32r42";52.1331569;5.3667083;"Company";"no";0;2;"https://research-software-directory.org/image/rpc/get_image?uid=a06a48c46023ee3f2a7a68b81f55586abe0731b4"
"icos-central-analytical-laboratories";"Central Analytical Laboratories";"https://www.icos-cal.eu/";;;;;;;"no";0;0;
"amsterdam-university-medical-centers";"Amsterdam University Medical Centers";"https://www.amsterdamumc.org";"Netherlands";"Amsterdam";"https://ror.org/05grdyy37";52.37403;4.88969;"Healthcare";"yes";2;3;"https://research-software-directory.org/image/rpc/get_image?uid=6f3020f3ffe6dd3e16898c1f3da9c5dd522cfd57"
"scripps-research-institute";"Scripps Research Institute";"http://www.scripps.edu/";"United States";"San Diego";"https://ror.org/02dxx6824";32.71571;-117.16472;"Nonprofit";"no";0;1;"https://research-software-directory.org/image/rpc/get_image?uid=a62621811bf19bf99d092e11c061a923f155aea1"
"universitat-greifswald";"Universität Greifswald";"https://www.uni-greifswald.de";"Germany";"Greifswald";"https://ror.org/00r1edq15";54.09311;13.38786;"Education";"no";1;0;"https://research-software-directory.org/image/rpc/get_image?uid=79d071383a5263a7d6a745fd021b1f18d5083108"
"meopar-incorporated";"MEOPAR Incorporated";"https://meopar.ca";"Canada";;;;;;"no";0;1;"https://research-software-directory.org/image/rpc/get_image?uid=0fc835b9f0757c0b37c56a46f5144634b69e6f8d"
"phortos";"Phortos";;"Netherlands";;;;;;"no";0;1;"https://research-software-directory.org/image/rpc/get_image?uid=65f2898a4687bae6bfb0f17789b42ca75fc58672"
"ouranos";"Ouranos";"http://ouranos.ca/en/";"Canada";"Montreal";"https://ror.org/0565gth98";45.506339;-73.572411;"Nonprofit";"no";1;0;"https://research-software-directory.org/image/rpc/get_image?uid=c4fa19105db00106d832ce35f58a834012eb19e1"
"new-zealand-escience-infrastructure";"New Zealand eScience Infrastructure (NeSI)";"https://www.nesi.org.nz/";"New Zealand";"Auckland";"https://ror.org/037aan677";-36.856079;174.766553;"Facility";"yes";1;0;"https://research-software-directory.org/image/rpc/get_image?uid=867cf00ce5c02802d916de13d44dede1d29021b6"
"massachusetts-university-of-technology";"Massachusetts University of Technology";;"United States";"Cambridge";"https://ror.org/042nb2s44";42.3751;-71.10561;"Education";"no";1;1;"https://research-software-directory.org/image/rpc/get_image?uid=e7affd1d3b03f5c26f3aa0c942792bcf9b6f1ae0"
"naco";"NaCo";"https://naco.liacs.nl/";;;;;;;"no";3;1;"https://research-software-directory.org/image/rpc/get_image?uid=75f03aa6ce9335e0325162830dd88d234a35128d"
"technical-university-of-denmark";"Technical University of Denmark";"http://www.dtu.dk/english";"Denmark";"Kongens Lyngby";"https://ror.org/04qtj9h94";55.77044;12.50378;"Education";"no";1;2;"https://research-software-directory.org/image/rpc/get_image?uid=7e06cdeffd5cfefb3a52367b929987a8caf2dcd3"
"university-of-leicester";"University of Leicester";"https://le.ac.uk";"United Kingdom";"Leicester";"https://ror.org/04h699437";52.6386;-1.13169;"Education";"no";1;0;"https://research-software-directory.org/image/rpc/get_image?uid=498bfc61ddfc40a53f12bc57a0ae8cf0b3082c28"
"birds-canada";"Birds Canada";"https://www.oiseauxcanada.org/";"Canada";;;;;;"no";2;0;"https://research-software-directory.org/image/rpc/get_image?uid=4494bd9ca154c00c4e0c5cc66f9957c3f15456bd"
"yonsei-university";"Yonsei University";"http://www.yonsei.ac.kr/eng/";"South Korea";"Seoul";"https://ror.org/01wjejq96";37.566;126.9784;"Education";"no";0;1;"https://research-software-directory.org/image/rpc/get_image?uid=d5fb1a92e91af4c077a0f8ad704a7617b5e65aae"
"university-of-victoria";"University of Victoria";"http://www.uvic.ca/";"Canada";"Victoria";"https://ror.org/04s5mat29";48.4359;-123.35155;"Education";"no";1;0;"https://research-software-directory.org/image/rpc/get_image?uid=1dc7c646de4db17eb2f655d8c7abbd414c15e3c8"
"intel-india";"Intel (India)";"http://www.intel.in/";"India";"Bengaluru";"https://ror.org/04f2n1245";12.926928;77.684336;"Company";"no";0;1;"https://research-software-directory.org/image/rpc/get_image?uid=86bf4b4c9232fc3eac048fa5dcdeb531cb24b134"
"cat4smr";"CAT4SMR";"https://cat4smr.humanities.uva.nl";;;;;;;"no";2;0;"https://research-software-directory.org/image/rpc/get_image?uid=26e005dddb4ca712defeee774272beec0bebe8c4"
"wageningen-university-research";"Wageningen University & Research";"https://www.wur.nl/";"Netherlands";"Wageningen";"https://ror.org/04qw24q55";51.97;5.66667;"Education";"yes";17;24;"https://research-software-directory.org/image/rpc/get_image?uid=f224bb38ae127f8ef4c9f360824c6262cf335500"
"university-of-reading";"University of Reading";"http://www.reading.ac.uk/";"United Kingdom";"Reading";"https://ror.org/05v62cm79";51.45625;-0.97113;"Education";"no";3;3;"https://research-software-directory.org/image/rpc/get_image?uid=e71be5ef02ad80aa01e4e99d3bbd3372ac5dc882"
"carbon-portal";"Carbon Portal";"https://www.icos-cp.eu";;;;;;;"no";0;0;
"university-of-edinburgh";"University of Edinburgh";"https://www.ed.ac.uk/";"United Kingdom";"Edinburgh";"https://ror.org/01nrxwf90";55.95206;-3.19648;"Education";"no";0;2;"https://research-software-directory.org/image/rpc/get_image?uid=6551e0b7aca7b6846787c05853ee987966d93df1"
"university-of-applied-sciences-utrecht";"University of Applied Sciences Utrecht";"http://www.english.hu.nl/";"Netherlands";"Utrecht";"https://ror.org/028z9kw20";52.09083;5.12222;"Education";"no";0;2;"https://research-software-directory.org/image/rpc/get_image?uid=f5430ffc153964c8b8ec2e25d11b414451e25364"
"tata-steel";"TATA Steel";"https://www.tatasteeleurope.com/";"Netherlands";"Velsen";"https://ror.org/00925cq50";51.629084;4.87641;"Company";"no";0;3;"https://research-software-directory.org/image/rpc/get_image?uid=d95abb732f2636293f797de9bfd1b19de4176e71"
"university-of-connecticut-health-center";"University of Connecticut Health Center";"http://www.uchc.edu/";"United States";"Farmington";"https://ror.org/02kzs4y22";41.71982;-72.83204;"Healthcare";"no";1;0;"https://research-software-directory.org/image/rpc/get_image?uid=12fbf6ea0673fad3b8f1d658ece3cd4cb18bf783"
"dnv-gl";" DNV GL";"https://www.dnv.com/";"Netherlands";"Rotterdam";"https://ror.org/004r4ve77";51.9225;4.47917;"Company";"no";0;1;"https://research-software-directory.org/image/rpc/get_image?uid=ac23ab670dd4743197ebf8ef0dea437699fc0582"
"virginia-tech";"Virginia Tech";;"United States";"Blacksburg";"https://ror.org/02smfhw86";37.22957;-80.41394;"Education";"no";1;1;"https://research-software-directory.org/image/rpc/get_image?uid=54537afcc0fb4b3078c643d9918a7daf9888f864"
"dnv-gl-norway";"DNV GL (Norway)";"https://www.dnvgl.com/";"Norway";"Sandvika";"https://ror.org/04c235406";59.89073;10.52774;"Company";"no";0;1;"https://research-software-directory.org/image/rpc/get_image?uid=fac96b467f872414e72295f52408a5261ab7046f"
"averis-seeds";"Averis Seeds";;"Netherlands";"Veendam";"https://ror.org/011v4dm73";53.1065549;6.8695241;"Company";"no";0;1;"https://research-software-directory.org/image/rpc/get_image?uid=4df4e6e767a61d1b893f5cb163f7af224f5fa8d6"
"university-of-southampton";"University of Southampton";"http://www.southampton.ac.uk/";"United Kingdom";"Southampton";"https://ror.org/01ryk1543";50.90395;-1.40428;"Education";"no";1;1;"https://research-software-directory.org/image/rpc/get_image?uid=5cec988c3382da1de561f79aa94e830d419183a4"
"gsi-helmholtz-centre-for-heavy-ion-research";"GSI Helmholtz Centre for Heavy Ion Research";"https://www.gsi.de/";"Germany";"Darmstadt";"https://ror.org/02k8cbn47";49.87167;8.65027;"Facility";"yes";0;0;"https://research-software-directory.org/image/rpc/get_image?uid=cc37c885d9b6d3d5ab4a4bf375b0f42d3cd32a05"
"ministry-of-health-welfare-and-sport";"Ministry of Health Welfare and Sport";"http://www.government.nl/ministries/vws";"Netherlands";"The Hague";"https://ror.org/041evnj42";52.07667;4.29861;"Government";"no";0;5;"https://research-software-directory.org/image/rpc/get_image?uid=cc5f8b9b61f1db13b707aed27aa51fefe07d157e"
"islandora-foundation";"Islandora Foundation";"https://www.islandora.ca/";"Canada";;;;;;"no";1;0;"https://research-software-directory.org/image/rpc/get_image?uid=cc0d969fab827b1c908ca3918dd81a05d68acb64"
"university-of-geneva";"University of Geneva";"https://www.unige.ch/";"Switzerland";"Geneva";"https://ror.org/01swzsf04";46.20222;6.14569;"Education";"no";0;1;"https://research-software-directory.org/image/rpc/get_image?uid=d9d2c35d78e4c9bb4fc9bcda1977998da08f012e"
"deltares";"Deltares";"http://www.deltares.nl";"Netherlands";"Delft";"https://ror.org/01deh9c76";52.00667;4.35556;"Facility";"no";1;7;"https://research-software-directory.org/image/rpc/get_image?uid=a76775082c8e784b4174b8102c45426624175ad6"
"jhu";"JHU";"https://www.jhu.edu";"United States";"Baltimore";"https://ror.org/00za53h95";39.29038;-76.61219;"Education";"no";0;0;
"institut-catala-de-ciencies-del-clima";"Institut Català de Ciències del Clima";"http://www.ic3.cat/";"Spain";"Barcelona";"https://ror.org/01bpa4157";41.38879;2.15899;"Nonprofit";"no";0;1;"https://research-software-directory.org/image/rpc/get_image?uid=2f90ab8f5403be59b356b1f0a06e265bf5024a4e"
"leiden-observatory";"Leiden Observatory";"https://www.universiteitleiden.nl/en/science/astronomy";"Netherlands";;;;;;"no";0;1;"https://research-software-directory.org/image/rpc/get_image?uid=9873a41a914c44cdd1a65c57e6737966672218ea"
"university-of-bergen";"University of Bergen";"http://www.uib.no/";"Norway";"Bergen";"https://ror.org/03zga2b32";60.39299;5.32415;"Education";"no";0;1;"https://research-software-directory.org/image/rpc/get_image?uid=4afcb9fb6df191e5ee13675aa38882541e77c925"
"powerchainger";"PowerChainger";"https://www.powerchainger.nl/";;;;;;;"no";0;1;"https://research-software-directory.org/image/rpc/get_image?uid=009d13d570bf839e9e96413c7d0f3065e03bfed3"
"university-of-melbourne";"University of Melbourne";"http://www.unimelb.edu.au/";"Australia";"Melbourne";"https://ror.org/01ej9dk98";-37.814;144.96332;"Education";"no";1;0;"https://research-software-directory.org/image/rpc/get_image?uid=4f36e247dafc4aa8c2ffb749c21b0a4a5fdc47ed"
"canada-foundation-for-innovation";"Canada Foundation for Innovation";"http://www.innovation.ca/";"Canada";"Ottawa";"https://ror.org/000az4664";45.420441;-75.701319;"Nonprofit";"no";1;0;"https://research-software-directory.org/image/rpc/get_image?uid=568c1436492b138d2441aad03904ac2605df3d2f"
"ministry-of-defence";"Ministry of Defence";"https://www.defensie.nl/";"Netherlands";"The Hague";"https://ror.org/0079deh61";52.07667;4.29861;"Government";"no";0;0;
"ecmwf";"ECMWF";"https://www.ecmwf.int/";"United Kingdom";"Reading";"https://ror.org/014w0fd65";51.45625;-0.97113;"Other";"no";1;2;"https://research-software-directory.org/image/rpc/get_image?uid=b1a810d8f1c61ff146b3ff661b73910ad277602f"
"universitat-hamburg";"Universität Hamburg";"http://www.uni-hamburg.de/";"Germany";"Hamburg";"https://ror.org/00g30e956";53.55073;9.99302;"Education";"no";0;1;"https://research-software-directory.org/image/rpc/get_image?uid=2ed4843629caf3d14f183bbb407cc9d759c1c853"
"university-of-amsterdam";"University of Amsterdam";"http://www.uva.nl";"Netherlands";"Amsterdam";"https://ror.org/04dkp9463";52.37403;4.88969;"Education";"no";28;56;"https://research-software-directory.org/image/rpc/get_image?uid=69012f2cf4e8fa7007e2c4bc23ad2a0ffa309d18"
"pelagic-freezer-trawler-association";"Pelagic Freezer Trawler Association";"https://www.pelagicfish.eu/";"Netherlands";;;;;;"no";0;1;"https://research-software-directory.org/image/rpc/get_image?uid=ef48af359106e3c1cd4c95ea7677bf9928fb0491"
"university-of-erlangen-nuremberg";"University of Erlangen-Nuremberg";"https://www.fau.de/";"Germany";"Erlangen";"https://ror.org/00f7hpc57";49.59099;11.00783;"Education";"no";0;3;"https://research-software-directory.org/image/rpc/get_image?uid=6080929213abac47891561471fb1aac7ba891140"
"arctic-institute-of-north-america";"arctic institute of north america";"https://arctic.ucalgary.ca/";"Canada";;;;;;"no";1;0;"https://research-software-directory.org/image/rpc/get_image?uid=a2885f38413dfefd52bb4273cfcc1ff4445d7a19"
"comite-de-donnees-pour-la-science-et-la-technologie";"Comité de données pour la science et la technologie";"https://www.codata.org/";"France";;;;;;"no";0;1;"https://research-software-directory.org/image/rpc/get_image?uid=b83c7d76177763cbbeed82b72b6a2692377bb4f5"
"fields-of-view";"Fields of View";;"India";;;;;;"no";0;1;"https://research-software-directory.org/image/rpc/get_image?uid=543cf1fbcaa06e461c1bd6799eecb1f3359cb471"
"huygens-ing";"Huygens Instituut";"https://www.huygens.knaw.nl/";"Netherlands";"Amsterdam";"https://ror.org/04x6kq749";52.37403;4.88969;"Facility";"no";1;7;"https://research-software-directory.org/image/rpc/get_image?uid=ceeacb61e9b23783158939d28746fb162c9f1fac"
"boskalis-netherlands";"Boskalis (Netherlands)";"https://boskalis.com//";"Netherlands";"Papendrecht";"https://ror.org/01w4ggt72";51.824408;4.729285;"Company";"no";0;1;"https://research-software-directory.org/image/rpc/get_image?uid=e4e5b01e47f568517887f5a4b44445bd351b0b1f"
"netherlands-space-office";"Netherlands Space Office";"http://www.spaceoffice.nl/en/";"Netherlands";"The Hague";"https://ror.org/01vb6q136";52.081872;4.333238;"Government";"no";0;3;"https://research-software-directory.org/image/rpc/get_image?uid=fec95aed0a8c567f54cbdb3b682464a05ffe9cd8"
"dutch-research-council";"Dutch Research Council";"http://www.nwo.nl/";"Netherlands";"The Hague";"https://ror.org/04jsz6e67";52.07667;4.29861;"Government";"no";0;46;"https://research-software-directory.org/image/rpc/get_image?uid=996f966bb23638025e6c0d2a16d125e3bd915dd6"
"rukakeskus-oy";"Rukakeskus Oy";"https://www.ruka.fi/en/skiresort/rukakeskus";;;;;;;"no";0;1;"https://research-software-directory.org/image/rpc/get_image?uid=3502e70e7e130afe1f2c32f0fb8fcc31c31c91bd"
"university-of-waterloo";"University of Waterloo";"https://uwaterloo.ca/";"Canada";"Waterloo";"https://ror.org/01aff2v68";43.4668;-80.51639;"Education";"no";3;0;"https://research-software-directory.org/image/rpc/get_image?uid=438eb80ad6e00c2e5d807c8d8fa7c73023d7d9fc"
"maastricht-university-medical-center";"Maastricht University Medical Center+";;"Netherlands";"Maastricht";"https://ror.org/02d9ce178";50.84833;5.68889;"Healthcare";"no";1;3;"https://research-software-directory.org/image/rpc/get_image?uid=3df5491992510fed64e57de5b7f5addfb9c2f0d6"
"fraunhofer-institute-for-mechanics-of-materials";"Fraunhofer Institute for Mechanics of Materials";"https://www.iwm.fraunhofer.de/";"Germany";"Freiburg im Breisgau";"https://ror.org/04hm8eb66";47.9959;7.85222;"Facility";"no";2;0;"https://research-software-directory.org/image/rpc/get_image?uid=010db45047b29a135b0b6ef8e101a59f4db08bab"
"gemeente-utrecht";"Gemeente Utrecht";"https://www.utrecht.nl/";"Netherlands";;;;;;"no";0;1;"https://research-software-directory.org/image/rpc/get_image?uid=7615bf65076e703b57aba46362ee939c1332495f"
"gladstone-institutes";"Gladstone Institutes";"http://gladstone.org/";"United States";"San Francisco";"https://ror.org/038321296";37.768074;-122.394455;"Nonprofit";"no";2;0;"https://research-software-directory.org/image/rpc/get_image?uid=e5855601bdaa8f9b6da50a826fec780cd1e4bf8c"
"vrije-universiteit-amsterdam-technology-centre";"Vrije Universiteit Amsterdam Technology Centre";"https://vu.nl/en/about-vu/research-institutes/technology-centre";;;;;;;"no";0;1;
"university-of-groningen";"University of Groningen";"http://www.rug.nl/";"Netherlands";"Groningen";"https://ror.org/012p63287";53.219443;6.562966;"Education";"yes";9;18;"https://research-software-directory.org/image/rpc/get_image?uid=e087e1d72c00003ddafe2a42527eeb4005e37711"
"nextmove-software";"NextMove Software";"https://www.nextmovesoftware.com/";;;;;;;"no";1;0;"https://research-software-directory.org/image/rpc/get_image?uid=5d65c20cc2a5ba7ca5defc206d910604eb6b864b"
"university-of-warsaw";"University of Warsaw";"http://en.uw.edu.pl/";"Poland";"Warsaw";"https://ror.org/039bjqg32";52.22977;21.01178;"Education";"no";0;1;"https://research-software-directory.org/image/rpc/get_image?uid=8a50bbc7938c8fdb84b8306174a3224c925f7c64"
"ministry-of-infrastructure-and-water-management";"Ministry of Infrastructure and Water Management";"https://www.government.nl/ministries/ministry-of-infrastructure-and-water-management";"Netherlands";"The Hague";"https://ror.org/056a6x975";52.07667;4.29861;"Government";"no";0;1;"https://research-software-directory.org/image/rpc/get_image?uid=359a1becf5338301a28c0f8b49c7e35c5dbd44fa"
"koninklijke-luchtmacht";"Koninklijke Luchtmacht";"https://www.defensie.nl/organisatie/luchtmacht";"Netherlands";;;;;;"no";0;1;"https://research-software-directory.org/image/rpc/get_image?uid=e8a63012bcc0add39902c684d5d68c8917a18ba1"
"clingendael-international-energy-programme";"Clingendael International Energy Programme";"https://www.clingendaelenergy.com/";;;;;;;"no";0;1;"https://research-software-directory.org/image/rpc/get_image?uid=f9c6943a48df7cbdb050c5fe27ca98181729e5f1"
"university-of-vienna";"University of Vienna";"https://www.univie.ac.at/en/";"Austria";"Vienna";"https://ror.org/03prydq77";48.20849;16.37208;"Education";"no";0;1;"https://research-software-directory.org/image/rpc/get_image?uid=0d5e30631b50cbe057dca871194b542c509dd337"
"centre-for-digital-humanities";"Centre for Digital Humanities";"https://cdh.uu.nl/";"Netherlands";;;;;;"no";0;0;"https://research-software-directory.org/image/rpc/get_image?uid=60d9d72f51e71e5962d43427ea9914357cd404f0"
"iter";"ITER";"http://www.iter.org/";"France";"Vinon-sur-Verdon";"https://ror.org/01d7n9638";43.72484;5.81168;"Other";"no";1;1;"https://research-software-directory.org/image/rpc/get_image?uid=9086200d6f9f0e525370efd0d9fb6a2335893a26"
"dutch-techcenter-for-life-sciences";"Dutch Techcenter for Life Sciences";"http://www.dtls.nl";"Netherlands";"Utrecht";"https://ror.org/055d8gs64";52.089736;5.114174;"Nonprofit";"no";1;2;"https://research-software-directory.org/image/rpc/get_image?uid=1ea209d1a288da4e5b972fcea856b53a6597dce7"
"digital-research-alliance-of-canada";"Digital Research Alliance of Canada";"https://alliancecan.ca";"Canada";"Ottawa";"https://ror.org/010r6td27";45.41117;-75.69812;"Nonprofit";"yes";63;0;"https://research-software-directory.org/image/rpc/get_image?uid=e26098c04ea1d0c7fc7ca9e75c4454bcf0834a87"
"royal-netherlands-academy-of-arts-and-sciences";"Royal Netherlands Academy of Arts and Sciences";;"Netherlands";"Amsterdam";"https://ror.org/043c0p156";52.37403;4.88969;"Government";"no";0;2;"https://research-software-directory.org/image/rpc/get_image?uid=bd43a9e4708f4cc533198140776a157050f70f3c"
"livingpastnu";"Livingpast.nu";"https://www.livingpast.nu/";;;;;;;"no";0;0;
"blue-action";"Blue Action";;"International";;;;;;"no";0;1;"https://research-software-directory.org/image/rpc/get_image?uid=b29b647bc5abe7c63d5951181420adfcb83a78bb"
"indoc-research";"Indoc Research";"http://www.indocresearch.org/";"Canada";"Toronto";"https://ror.org/03maf3k43";43.651873;-79.370524;"Nonprofit";"no";1;0;"https://research-software-directory.org/image/rpc/get_image?uid=42a33eef7e713d8e7dbda93fb963b80a0b6c60c2"
"university-of-exeter";"University of Exeter";;"United Kingdom";"Exeter";"https://ror.org/03yghzc09";50.7236;-3.52751;"Education";"no";0;1;"https://research-software-directory.org/image/rpc/get_image?uid=ff0e76578ff521daa5ad4a03bb024eb4eb452df0"
"openaire-non-profit-civil-partnership";"OpenAIRE Non-Profit Civil Partnership";"https://www.openaire.eu";"Greece";"Marousi";"https://ror.org/019kf3481";38.05;23.8;"Nonprofit";"no";0;1;"https://research-software-directory.org/image/rpc/get_image?uid=7dc1a237730927360d41f281366e976872f49334"
"university-of-twente";"University of Twente";"https://www.utwente.nl/";"Netherlands";"Enschede";"https://ror.org/006hf6230";52.21833;6.89583;"Education";"yes";23;26;"https://research-software-directory.org/image/rpc/get_image?uid=00e41f5ba3ae1733d591d4269c0fe64e756d655f"
"athena-research-and-innovation-center-in-information-communication-knowledge-technologies";"Athena Research and Innovation Center In Information Communication & Knowledge Technologies";"https://www.athenarc.gr/en/home";"Greece";"Marousi";"https://ror.org/0576by029";38.05;23.8;"Facility";"no";0;1;"https://research-software-directory.org/image/rpc/get_image?uid=86285d39884496d0cdde88c640a619bf224c8674"
"lufthansa-systems";"Lufthansa Systems";;"Germany";;;;;;"no";0;1;"https://research-software-directory.org/image/rpc/get_image?uid=9861243043d57668c120700627b495021bdd2bf9"
"4dr-lab";"4DR Lab";"https://4dresearchlab.nl/";"Netherlands";;;;;;"no";0;1;"https://research-software-directory.org/image/rpc/get_image?uid=36ad85d1943880ff908c31e1148a6825b4ade649"
"queens-university";"Queen's University";"http://www.queensu.ca/";"Canada";"Kingston";"https://ror.org/02y72wh86";44.22976;-76.48098;"Education";"no";5;0;"https://research-software-directory.org/image/rpc/get_image?uid=caa21878f094b321192c5bb0404d03f93b940409"
"gerda-henkel-foundation";"Gerda Henkel Foundation";"https://www.gerda-henkel-stiftung.de/";"Germany";"Düsseldorf";"https://ror.org/0584kkb18";51.230678;6.788875;"Nonprofit";"no";0;0;
"ec-earth";"EC-Earth";"https://github.com/EC-Earth";"International";;;;;;"no";2;1;"https://research-software-directory.org/image/rpc/get_image?uid=de1ea2d8aad5e8435ce965d5118d09e19895fbda"
"utrecht-university";"Utrecht University";"http://www.uu.nl";"The Netherlands";"Utrecht";"https://ror.org/04pp8hn57";52.09083;5.12222;"Education";"yes";47;35;"https://research-software-directory.org/image/rpc/get_image?uid=1fe589fc952e7db87eaea5d7228000b3d5b22cab"
"barcelona-supercomputing-center";"Barcelona Supercomputing Center";"https://www.bsc.es/";"Spain";"Barcelona";"https://ror.org/05sd8tv96";41.38879;2.15899;"Facility";"no";3;5;"https://research-software-directory.org/image/rpc/get_image?uid=7fdb4c3f31741eef08ba87003755e3b2c8568d10"
"lunet-aan-de-snel-foundation";"Lunet aan de Snel Foundation";"https://www.lunetaandesnel.nl/";;;;;;;"no";0;1;"https://research-software-directory.org/image/rpc/get_image?uid=ac3607919e2355524abd6de9b0a6250b60f500e3"
"tilburg-university";"Tilburg University";;"Netherlands";"Tilburg";"https://ror.org/04b8v1s79";51.55551;5.0913;"Education";"no";1;6;"https://research-software-directory.org/image/rpc/get_image?uid=864fa8b71403f6e9d051051f563d60c8a2717fe1"
"qualcomm-united-states";"Qualcomm (United States)";"https://www.qualcomm.com/";"United States";"San Diego";"https://ror.org/002zrf773";32.895167;-117.195722;"Company";"no";0;1;"https://research-software-directory.org/image/rpc/get_image?uid=16588440c9215acbe44c27b55f8b8350237dc50c"
"netherlands-metabolomics-institute";"Netherlands Metabolomics Institute";"https://www.metabolomicscentre.nl/";"Netherlands";"Utrecht";"https://ror.org/00zh5wn98";52.089578;5.114142;"Facility";"no";1;1;"https://research-software-directory.org/image/rpc/get_image?uid=d86ffecb12efbb5f8cb616e23f9d1172202236bc"
"museum-van-bommel-van-dam";"Museum van Bommel van Dam";"https://www.vanbommelvandam.nl/";"Netherlands";;;;;;"no";0;1;"https://research-software-directory.org/image/rpc/get_image?uid=5a06cd9466182f53343da85a217b0c4cd4c8b93c"
"imbb-forth";"IMBB-FORTH";"https://www.imbb.forth.gr/en/";"Greece";"Heraklion";"https://ror.org/01gzszr18";35.3175499;25.0675351;"Facility";"no";0;1;"https://research-software-directory.org/image/rpc/get_image?uid=a03337bf5ccfe8df847bd28549c3e64a182a65ab"
"university-health-network";"University Health Network";"http://www.uhn.ca/";"Canada";"Toronto";"https://ror.org/042xt5161";43.70011;-79.4163;"Healthcare";"no";1;0;"https://research-software-directory.org/image/rpc/get_image?uid=51213e035184eb28975af1408eb85e6bcd5f8964"
"cwi";"CWI";"http://www.cwi.nl/";"Netherlands";"Amsterdam";"https://ror.org/00x7ekv49";52.37403;4.88969;"Facility";"no";9;16;"https://research-software-directory.org/image/rpc/get_image?uid=ef4e50b92e983007fafef22a73b2d67974cd6123"
"university-of-udine";"University of Udine";"http://www.uniud.it/en/uniud-international?set_language=en";"Italy";"Udine";"https://ror.org/05ht0mh31";46.0693;13.23715;"Education";"no";0;1;"https://research-software-directory.org/image/rpc/get_image?uid=016cbaf918fec714427c8f4ae29793e19ad6cdc8"
"iknl";"IKNL";"https://iknl.nl/";"Netherlands";"Eindhoven";"https://ror.org/03g5hcd33";51.44083;5.47778;"Healthcare";"no";1;0;"https://research-software-directory.org/image/rpc/get_image?uid=0d467383023e5447bd1b07d631c2ddfd0fe8e790"
"bejo";"Bejo";"https://www.bejo.com/";"Netherlands";"Schagen";"https://ror.org/046v1a544";52.726732;4.733806;"Company";"no";0;1;"https://research-software-directory.org/image/rpc/get_image?uid=e1e946b861a706ac24d4161b72ef9a73dbf4386f"
"koninklijk-nederlands-meteorologisch-instituut";"Koninklijk Nederlands Meteorologisch Instituut";"http://www.knmi.nl/";"Netherlands";"De Bilt";"https://ror.org/05dfgh554";52.11;5.18056;"Government";"no";5;10;"https://research-software-directory.org/image/rpc/get_image?uid=2083e455b843c18844cc072a3b8968566705cfd5"
"university-of-sussex";"University of Sussex";"http://www.sussex.ac.uk/";"United Kingdom";"Brighton";"https://ror.org/00ayhx656";50.82838;-0.13947;"Education";"no";1;0;"https://research-software-directory.org/image/rpc/get_image?uid=c1f3ee0383353ed02010e2e0c1c4971fc281276a"
"woods-hole-oceanographic-institution";"Woods Hole Oceanographic Institution";"http://www.whoi.edu/";"United States";"Falmouth";"https://ror.org/03zbnzt98";41.5515;-70.61475;"Nonprofit";"no";0;1;"https://research-software-directory.org/image/rpc/get_image?uid=a1e5bb4533dc8d712a2902dfd9da3b25f0d7fdfa"
"unilever";"Unilever";;"Netherlands";"Rotterdam";"https://ror.org/02436cs38";51.914481;4.503732;"Company";"no";0;1;"https://research-software-directory.org/image/rpc/get_image?uid=64a578dfce2c2f8293106b4fc9b8bde625243b7d"
"office-of-science";"Office of Science";"https://www.energy.gov/science/office-science";"United States";"Washington";"https://ror.org/00mmn6b08";38.89511;-77.03637;"Government";"no";0;1;
"openda";"OpenDA";"http://www.openda.org/";"International";;;;;;"no";1;0;"https://research-software-directory.org/image/rpc/get_image?uid=fb2e72a490c2fb8ad37e87b46dcb04c8dfc9ff1d"
"the-hospital-for-sick-children";"The Hospital for Sick Children";"https://www.sickkids.ca/";"Canada";;;;;;"no";2;0;"https://research-software-directory.org/image/rpc/get_image?uid=0d107268ebf9eee1ef65bc0535b23211404d5da1"
"heerema-engineering-solutions";"Heerema Engineering Solutions";"https://www.heerema.com/heerema-engineering-solutions";;;;;;;"no";0;1;"https://research-software-directory.org/image/rpc/get_image?uid=435c57fa43d245afaf94d6d9c0937db465ee8b95"
"australian-earth-system-simulator";"Australian Earth-System Simulator";"https://www.access-nri.org.au";"Australia";"Canberra";"https://ror.org/03qhv9c02";-35.28346;149.12807;"Facility";"no";2;0;"https://research-software-directory.org/image/rpc/get_image?uid=61b8d4b1f8e70367282be662da9e8cd49bc330d9"
"astron";"ASTRON";"http://www.astron.nl/";"Netherlands";"Dwingeloo";"https://ror.org/000k1q888";52.83417;6.36944;"Other";"no";12;13;"https://research-software-directory.org/image/rpc/get_image?uid=7dca52c44d669af909803b96f1ef4cab935c342d"
"european-organization-for-nuclear-research";"European Organization for Nuclear Research";"http://home.web.cern.ch/";"Switzerland";"Geneva";"https://ror.org/01ggx4157";46.20222;6.14569;"Facility";"no";0;1;"https://research-software-directory.org/image/rpc/get_image?uid=e548991d0f7bd8fbfabaf35fdd4f02e81ea289c9"
"international-institute-for-applied-systems-analysis";"International Institute for Applied Systems Analysis";"http://www.iiasa.ac.at/";"Austria";"Laxenburg";"https://ror.org/02wfhk785";48.06833;16.35607;"Nonprofit";"no";0;2;"https://research-software-directory.org/image/rpc/get_image?uid=277f29598081cbd02765ea87381bc5f0132f4526"
"university-of-ulster";"University of Ulster";"http://www.ulster.ac.uk/";"United Kingdom";"Coleraine";"https://ror.org/01yp9g959";55.13333;-6.66667;"Education";"no";1;1;"https://research-software-directory.org/image/rpc/get_image?uid=9b39ad7ec175d4dc27fa7f6b8f4fbec5b32dbb70"
"universidad-politecnica-de-madrid";"Universidad Politécnica de Madrid";"http://www.upm.es";"Spain";"Madrid";"https://ror.org/03n6nwv02";40.4165;-3.70256;"Education";"no";0;1;"https://research-software-directory.org/image/rpc/get_image?uid=80a2a867d885bb740670fe30c863bf704fc20eac"
"helmholtz-centre-for-environmental-research";"Helmholtz Centre for Environmental Research";"http://www.ufz.de/index.php?de=11385";"Germany";"Leipzig";"https://ror.org/000h6jb29";51.33962;12.37129;"Facility";"no";1;0;"https://research-software-directory.org/image/rpc/get_image?uid=0df5dadc95b131cc95cf94c28fec5fa8ab5b1418"
"university-of-alberta";"University of Alberta";"http://ualberta.ca/";"Canada";"Edmonton";"https://ror.org/0160cpw27";53.55014;-113.46871;"Education";"no";1;0;"https://research-software-directory.org/image/rpc/get_image?uid=2a0ea36a7407ba80c57db7297ba88a3f10f646d4"
"max-planck-institute-of-animal-behavior";"Max Planck Institute of Animal Behavior";"https://www.mpg.de/987894/verhaltensbiologie";"Germany";"Radolfzell";"https://ror.org/026stee22";47.768104;8.996387;"Facility";"no";0;1;"https://research-software-directory.org/image/rpc/get_image?uid=fd9831f0a4f0f7dfcd443ed67cb14b3f34bbb85a"
"nhtv-breda-university-of-applied-sciences";"NHTV Breda University of Applied Sciences";"https://www.nhtv.nl/ENG.html";"Netherlands";"Breda";"https://ror.org/04mfj5474";51.58656;4.77596;"Education";"no";0;2;"https://research-software-directory.org/image/rpc/get_image?uid=e232a0fb3043c08b3375af9abbc70bf9b304a0ed"
"university-of-glasgow";"University of Glasgow";"http://www.dcs.gla.ac.uk";"United Kingdom";"Glasgow";"https://ror.org/00vtgdb53";55.86515;-4.25763;"Education";"no";2;0;"https://research-software-directory.org/image/rpc/get_image?uid=6d70d4e9ec79dd2a5def2350931fc141472cf4a8"
"bluewater-energy-services";"Bluewater Energy Services";"https://www.bluewater.com/";;;;;;;"no";0;1;"https://research-software-directory.org/image/rpc/get_image?uid=ebc902c989abeffe04b7474ea39a540c5cd9f639"
"university-of-ottawa";"University of Ottawa";"http://www.uottawa.ca/en";"Canada";"Ottawa";"https://ror.org/03c4mmv16";45.41117;-75.69812;"Education";"no";1;0;"https://research-software-directory.org/image/rpc/get_image?uid=de23ba09ca236540f3bb855887efa8e3deaa3904"
"kadaster";"Kadaster";"https://www.kadaster.nl/about-us";"Netherlands";;;;;;"no";0;0;
"activinsights-ltd";"Activinsights Ltd";"https://www.activinsights.com";"United Kingdom";;;;;;"no";1;0;"https://research-software-directory.org/image/rpc/get_image?uid=418bcca0ecc437d6de60d91dee45631f0b7e14ad"
"holland-home-of-wind-energy";"Holland Home of Wind Energy";"https://www.hhwe.eu/";;;;;;;"no";0;1;"https://research-software-directory.org/image/rpc/get_image?uid=35a34636521f476898f3e8fd9bf80f1a6dcee494"
"ersilia-open-source-initiative";"Ersilia Open Source Initiative";"https://www.ersilia.io";"Spain";"Barcelona";"https://ror.org/019wm1d19";41.38879;2.15899;"Nonprofit";"no";1;0;"https://research-software-directory.org/image/rpc/get_image?uid=3fc6b8ee4a0181e0a85f014ff8d902697167a371"
"university-of-toronto";"University of Toronto";"http://www.utoronto.ca/";"Canada";"Toronto";"https://ror.org/03dbr7087";43.70643;-79.39864;"Education";"no";2;0;"https://research-software-directory.org/image/rpc/get_image?uid=cc599071aa9b1b9ba40516fb2e97519d09806194"
"good-food-institute";"Good Food Institute";"https://gfi.org";;;;;;;"no";0;1;"https://research-software-directory.org/image/rpc/get_image?uid=d77c83c57a75cd9de6d91ac30b8beae20a3498b4"
"biocellion";"Biocellion";"https://biocellion.com/";"United States";;;;;;"no";0;1;"https://research-software-directory.org/image/rpc/get_image?uid=f83e3f444df84a44ce77e31b19b540b09c94c1e2"
"vu-university-amsterdam";"Vrije Universiteit Amsterdam";"http://www.vu.nl/";"Netherlands";"Amsterdam";"https://ror.org/008xxew50";52.37403;4.88969;"Education";"no";35;41;"https://research-software-directory.org/image/rpc/get_image?uid=c329516686a757562d05e184db7cfa89b77b3ab6"
"monetdb";"monetdb";;"Netherlands";;;;;;"no";0;0;"https://research-software-directory.org/image/rpc/get_image?uid=caaf937e1bf3a6b1d848049e6a00eba7b375ad6d"
"centre-europeen-de-recherche-et-de-formation-avancee-en-calcul-scientifique";"Centre Européen de Recherche et de Formation Avancée en Calcul Scientifique";"http://www.cerfacs.fr/";"France";"Toulouse";"https://ror.org/02dzbc556";43.60426;1.44367;"Facility";"no";0;1;"https://research-software-directory.org/image/rpc/get_image?uid=121fc34101506269061f94fa102be42496720f71"
"vortech";"VORtech";"https://www.vortech.nl/en/";"Netherlands";"Delft";"https://ror.org/00fxhtz28";52.002884;4.353465;"Company";"no";1;0;"https://research-software-directory.org/image/rpc/get_image?uid=140d2fde3c05fcb46ecb5ddf65cf2beb90750d62"
"european-commission";"European Commission";"http://ec.europa.eu/index_en.htm";"Belgium";"Brussels";"https://ror.org/00k4n6c32";50.85045;4.34878;"Government";"no";0;1;
"norwegian-research-centre";"Norwegian Research Centre";"https://www.norceresearch.no/en/";"Norway";"Bergen";"https://ror.org/02gagpf75";60.39299;5.32415;"Facility";"no";0;2;"https://research-software-directory.org/image/rpc/get_image?uid=ce5ceb42cc8f3d7d416f4215db63480eb3bf1d33"
"centre-for-research-and-technology-hellas";"Centre for Research and Technology Hellas";"http://www.certh.gr/root.en.aspx";"Greece";"Thessaloniki";"https://ror.org/03bndpq63";40.64361;22.93086;"Facility";"no";0;1;"https://research-software-directory.org/image/rpc/get_image?uid=d042a1bc851a9de6448919ffcdd246d68b861be8"
"ustav-informatiky";"Ustav Informatiky";;"Slovakia";"Bratislava";"https://ror.org/04jgqpc26";48.153998;17.071929;"Facility";"no";0;1;"https://research-software-directory.org/image/rpc/get_image?uid=a5af93f1e1212848fe476da569b1327fab082b7a"
"ocean-thematic-centre";"Ocean Thematic Centre";"https://www.icos-otc.org/";;;;;;;"no";0;0;
"university-of-prince-edward-island";"University of Prince Edward Island";"http://home.upei.ca/";"Canada";"Charlottetown";"https://ror.org/02xh9x144";46.257178;-63.139213;"Education";"no";1;0;"https://research-software-directory.org/image/rpc/get_image?uid=d6ca4bbb52cf53e16513181b1a7941e229d84c2f"
"politecnico-milano";"Politecnico Milano";;"Italy";"Milan";"https://ror.org/01nffqt88";45.46427;9.18951;"Education";"no";0;1;"https://research-software-directory.org/image/rpc/get_image?uid=1bd69017a774e23689e09e960c8a7640cc457b4b"
"fortum-finland";"Fortum (Finland)";"https://www.fortum.com";"Finland";"Espoo";"https://ror.org/03nx8tr59";60.164626;24.736285;"Company";"no";0;1;"https://research-software-directory.org/image/rpc/get_image?uid=f6e8cfe6c4e29fe1554e74afcb02fa39e2f36c0e"
"swedish-meteorological-and-hydrological-institute";"Swedish Meteorological and Hydrological Institute";"https://www.smhi.se/en";"Sweden";"Norrköping";"https://ror.org/00hgzve81";58.59419;16.1826;"Government";"no";3;3;"https://research-software-directory.org/image/rpc/get_image?uid=94e4da0ea74fec715ef60b40a55930147bcd0a5d"
"charles-university";"Charles University";"http://www.cuni.cz/UKENG-1.html";"Czechia";"Prague";"https://ror.org/024d6js02";50.08804;14.42076;"Education";"no";0;2;"https://research-software-directory.org/image/rpc/get_image?uid=2f480197c1bca76077364ae5196fe5f6eb7a272d"
